[
 {
  "city": "Ghazni",
  "province": "Ghazni",
  "population": 190400,
  "country": "Afghanistan",
  "cityUrl": "/wiki/Ghazni",
  "coordinates": {
   "latitude": 33.549167,
   "longitude": 68.423333
  }
 },
 {
  "city": "Herat",
  "province": "Herat",
  "population": 592900,
  "country": "Afghanistan",
  "cityUrl": "/wiki/Herat",
  "coordinates": {
   "latitude": 34.341944,
   "longitude": 62.203056
  }
 },
 {
  "city": "Jalalabad",
  "province": "Nangarhar",
  "population": 280600,
  "country": "Afghanistan",
  "cityUrl": "/wiki/Jalalabad",
  "coordinates": {
   "latitude": 34.434167,
   "longitude": 70.447778
  }
 },
 {
  "city": "Kabul",
  "province": "Kabul",
  "population": 4601700,
  "country": "Afghanistan",
  "cityUrl": "/wiki/Kabul",
  "coordinates": {
   "latitude": 34.525278,
   "longitude": 69.178333
  }
 },
 {
  "city": "Kandahar",
  "province": "Kandahar",
  "population": 651400,
  "country": "Afghanistan",
  "cityUrl": "/wiki/Kandahar",
  "coordinates": {
   "latitude": 31.62,
   "longitude": 65.715833
  }
 },
 {
  "city": "Khost",
  "province": "Khost",
  "population": 160214,
  "country": "Afghanistan",
  "cityUrl": "/wiki/Khost",
  "coordinates": {
   "latitude": 33.333056,
   "longitude": 69.916944
  }
 },
 {
  "city": "Kunduz",
  "province": "Kunduz",
  "population": 268800,
  "country": "Afghanistan",
  "cityUrl": "/wiki/Kunduz",
  "coordinates": {
   "latitude": 36.728611,
   "longitude": 68.868056
  }
 },
 {
  "city": "Lashkargah",
  "province": "Helmand",
  "population": 201500,
  "country": "Afghanistan",
  "cityUrl": "/wiki/Lashkargah",
  "coordinates": {
   "latitude": 31.583056,
   "longitude": 64.369167
  }
 },
 {
  "city": "Mazar-i-Sharif",
  "province": "Balkh",
  "population": 500200,
  "country": "Afghanistan",
  "cityUrl": "/wiki/Mazar-i-Sharif",
  "coordinates": {
   "latitude": 36.7,
   "longitude": 67.116667
  }
 },
 {
  "city": "Mihtarlam",
  "province": "Laghman",
  "population": 144162,
  "country": "Afghanistan",
  "cityUrl": "/wiki/Mihtarlam",
  "coordinates": {
   "latitude": 34.668333,
   "longitude": 70.208889
  }
 },
 {
  "city": "Puli Khumri",
  "province": "Baghlan",
  "population": 221200,
  "country": "Afghanistan",
  "cityUrl": "/wiki/Puli_Khumri",
  "coordinates": {
   "latitude": 35.95,
   "longitude": 68.7
  }
 },
 {
  "city": "Sar-e Pol",
  "province": "Sar-e Pol",
  "population": 164500,
  "country": "Afghanistan",
  "cityUrl": "/wiki/Sar-e_Pol,_Afghanistan",
  "coordinates": {
   "latitude": 36.221389,
   "longitude": 65.927778
  }
 },
 {
  "city": "Sheberghan",
  "province": "Jowzjan",
  "population": 175599,
  "country": "Afghanistan",
  "cityUrl": "/wiki/Sheberghan",
  "coordinates": {
   "latitude": 36.665,
   "longitude": 65.752
  }
 },
 {
  "city": "Taloqan",
  "province": "Takhar",
  "population": 196400,
  "country": "Afghanistan",
  "cityUrl": "/wiki/Taloqan",
  "coordinates": {
   "latitude": 36.716667,
   "longitude": 69.516667
  }
 },
 {
  "city": "Tirana",
  "province": "Tirana",
  "population": 418495,
  "country": "Albania",
  "cityUrl": "/wiki/Tirana",
  "coordinates": {
   "latitude": 41.327222,
   "longitude": 19.818611
  }
 },
 {
  "city": "Durrës",
  "province": "Durrës",
  "population": 113249,
  "country": "Albania",
  "cityUrl": "/wiki/Durr%C3%ABs",
  "coordinates": {
   "latitude": 41.313333,
   "longitude": 19.445833
  }
 },
 {
  "city": "Aflou",
  "province": "Laghouat",
  "population": 102000,
  "country": "Algeria",
  "cityUrl": "/wiki/Aflou",
  "coordinates": {
   "latitude": 34.108889,
   "longitude": 2.101944
  }
 },
 {
  "city": "Aïn Beïda",
  "province": "Oum El Bouaghi",
  "population": 116000,
  "country": "Algeria",
  "cityUrl": "/wiki/A%C3%AFn_Be%C3%AFda,_Oum_El_Bouaghi",
  "coordinates": {
   "latitude": 35.783333,
   "longitude": 7.383333
  }
 },
 {
  "city": "Aïn Oussera",
  "province": "Djelfa",
  "population": 134100,
  "country": "Algeria",
  "cityUrl": "/wiki/A%C3%AFn_Oussera",
  "coordinates": {
   "latitude": 35.448889,
   "longitude": 2.904444
  }
 },
 {
  "city": "Algiers",
  "province": "Algiers",
  "population": 3915800,
  "country": "Algeria",
  "cityUrl": "/wiki/Algiers",
  "coordinates": {
   "latitude": 36.7325,
   "longitude": 3.087222
  }
 },
 {
  "city": "Annaba",
  "province": "Annaba",
  "population": 257300,
  "country": "Algeria",
  "cityUrl": "/wiki/Annaba",
  "coordinates": {
   "latitude": 36.9,
   "longitude": 7.766667
  }
 },
 {
  "city": "Barika",
  "province": "Batna",
  "population": 104300,
  "country": "Algeria",
  "cityUrl": "/wiki/Barika",
  "coordinates": {
   "latitude": 35.397222,
   "longitude": 5.365833
  }
 },
 {
  "city": "Batna",
  "province": "Batna",
  "population": 290600,
  "country": "Algeria",
  "cityUrl": "/wiki/Batna_(city)",
  "coordinates": {
   "latitude": 35.55,
   "longitude": 6.166667
  }
 },
 {
  "city": "Béchar",
  "province": "Béchar",
  "population": 165600,
  "country": "Algeria",
  "cityUrl": "/wiki/B%C3%A9char",
  "coordinates": {
   "latitude": 31.616667,
   "longitude": -2.216667
  }
 },
 {
  "city": "Bejaïa",
  "province": "Béjaïa",
  "population": 177900,
  "country": "Algeria",
  "cityUrl": "/wiki/Beja%C3%AFa",
  "coordinates": {
   "latitude": 36.751111,
   "longitude": 5.064167
  }
 },
 {
  "city": "Beskra",
  "province": "Biskra",
  "population": 307900,
  "country": "Algeria",
  "cityUrl": "/wiki/Beskra",
  "coordinates": {
   "latitude": 34.85,
   "longitude": 5.733333
  }
 },
 {
  "city": "Bordj Bou Arréridj",
  "province": "Bordj Bou Arréridj",
  "population": 158800,
  "country": "Algeria",
  "cityUrl": "/wiki/Bordj_Bou_Arr%C3%A9ridj",
  "coordinates": {
   "latitude": 36.066667,
   "longitude": 4.766667
  }
 },
 {
  "city": "Bou Saâda",
  "province": "M'Sila",
  "population": 111700,
  "country": "Algeria",
  "cityUrl": "/wiki/Bou_Sa%C3%A2da",
  "coordinates": {
   "latitude": 35.219167,
   "longitude": 4.181667
  }
 },
 {
  "city": "Chlef",
  "province": "Chlef",
  "population": 178600,
  "country": "Algeria",
  "cityUrl": "/wiki/Chlef",
  "coordinates": {
   "latitude": 36.164722,
   "longitude": 1.331667
  }
 },
 {
  "city": "El Boulaïda",
  "province": "Blida",
  "population": 182400,
  "country": "Algeria",
  "cityUrl": "/wiki/El_Boula%C3%AFda",
  "coordinates": {
   "latitude": 36.468611,
   "longitude": 2.831944
  }
 },
 {
  "city": "El Djelfa",
  "province": "Djelfa",
  "population": 339200,
  "country": "Algeria",
  "cityUrl": "/wiki/El_Djelfa",
  "coordinates": {
   "latitude": 34.666667,
   "longitude": 3.25
  }
 },
 {
  "city": "El Eulma",
  "province": "Sétif",
  "population": 355000,
  "country": "Algeria",
  "cityUrl": "/wiki/El_Eulma",
  "coordinates": {
   "latitude": 36.156449,
   "longitude": 5.685081
  }
 },
 {
  "city": "El Oued",
  "province": "El Oued",
  "population": 134600,
  "country": "Algeria",
  "cityUrl": "/wiki/El_Oued",
  "coordinates": {
   "latitude": 33.361111,
   "longitude": 6.860556
  }
 },
 {
  "city": "Ghardaïa",
  "province": "Ghardaïa",
  "population": 142900,
  "country": "Algeria",
  "cityUrl": "/wiki/Gharda%C3%AFa",
  "coordinates": {
   "latitude": 32.483333,
   "longitude": 3.666667
  }
 },
 {
  "city": "Ghilizane",
  "province": "Relizane",
  "population": 123200,
  "country": "Algeria",
  "cityUrl": "/wiki/Ghilizane",
  "coordinates": {
   "latitude": 35.733333,
   "longitude": 0.55
  }
 },
 {
  "city": "Guelma",
  "province": "Guelma",
  "population": 120000,
  "country": "Algeria",
  "cityUrl": "/wiki/Guelma",
  "coordinates": {
   "latitude": 36.45,
   "longitude": 7.433333
  }
 },
 {
  "city": "Jijel",
  "province": "Jijel",
  "population": 131500,
  "country": "Algeria",
  "cityUrl": "/wiki/Jijel",
  "coordinates": {
   "latitude": 36.816667,
   "longitude": 5.75
  }
 },
 {
  "city": "Khenchela",
  "province": "Khenchela",
  "population": 114400,
  "country": "Algeria",
  "cityUrl": "/wiki/Khenchela",
  "coordinates": {
   "latitude": 35.416667,
   "longitude": 7.133333
  }
 },
 {
  "city": "Laghouat",
  "province": "Laghouat",
  "population": 134300,
  "country": "Algeria",
  "cityUrl": "/wiki/Laghouat",
  "coordinates": {
   "latitude": 33.802778,
   "longitude": 2.875
  }
 },
 {
  "city": "Maghnia",
  "province": "Tlemcen",
  "population": 114600,
  "country": "Algeria",
  "cityUrl": "/wiki/Maghnia",
  "coordinates": {
   "latitude": 34.861667,
   "longitude": -1.730556
  }
 },
 {
  "city": "Lemdiyya",
  "province": "Médéa",
  "population": 145400,
  "country": "Algeria",
  "cityUrl": "/wiki/Lemdiyya",
  "coordinates": {
   "latitude": 36.2675,
   "longitude": 2.75
  }
 },
 {
  "city": "Mestghanem",
  "province": "Mostaganem",
  "population": 245300,
  "country": "Algeria",
  "cityUrl": "/wiki/Mestghanem",
  "coordinates": {
   "latitude": 35.933333,
   "longitude": 0.083333
  }
 },
 {
  "city": "Mouaskar",
  "province": "Mascara",
  "population": 108600,
  "country": "Algeria",
  "cityUrl": "/wiki/Mouaskar",
  "coordinates": {
   "latitude": 35.4,
   "longitude": 0.133333
  }
 },
 {
  "city": "M'Sila",
  "province": "M'Sila",
  "population": 132900,
  "country": "Algeria",
  "cityUrl": "/wiki/M%27Sila,_Algeria",
  "coordinates": {
   "latitude": 35.701944,
   "longitude": 4.546944
  }
 },
 {
  "city": "Qacentina",
  "province": "Constantine",
  "population": 464200,
  "country": "Algeria",
  "cityUrl": "/wiki/Qacentina",
  "coordinates": {
   "latitude": 36.35,
   "longitude": 6.6
  }
 },
 {
  "city": "Saïda",
  "province": "Saïda",
  "population": 142400,
  "country": "Algeria",
  "cityUrl": "/wiki/Sa%C3%AFda,_Algeria",
  "coordinates": {
   "latitude": 34.833333,
   "longitude": 0.15
  }
 },
 {
  "city": "Sidi-bel-Abbès",
  "province": "Sidi Bel Abbès",
  "population": 212900,
  "country": "Algeria",
  "cityUrl": "/wiki/Sidi_Bel_Abb%C3%A8s",
  "coordinates": {
   "latitude": 35.193889,
   "longitude": -0.641389
  }
 },
 {
  "city": "Skikda",
  "province": "Skikda",
  "population": 182900,
  "country": "Algeria",
  "cityUrl": "/wiki/Skikda",
  "coordinates": {
   "latitude": 36.866667,
   "longitude": 6.9
  }
 },
 {
  "city": "Souk Ahras",
  "province": "Souk Ahras",
  "population": 156700,
  "country": "Algeria",
  "cityUrl": "/wiki/Souk_Ahras",
  "coordinates": {
   "latitude": 36.286389,
   "longitude": 7.951111
  }
 },
 {
  "city": "Sétif",
  "province": "Sétif",
  "population": 788400,
  "country": "Algeria",
  "cityUrl": "/wiki/S%C3%A9tif",
  "coordinates": {
   "latitude": 36.19,
   "longitude": 5.41
  }
 },
 {
  "city": "Tébessa",
  "province": "Tébessa",
  "population": 196500,
  "country": "Algeria",
  "cityUrl": "/wiki/Tbessa",
  "coordinates": {
   "latitude": 35.4,
   "longitude": 8.116667
  }
 },
 {
  "city": "Tiaret",
  "province": "Tiaret",
  "population": 178900,
  "country": "Algeria",
  "cityUrl": "/wiki/Tihert",
  "coordinates": {
   "latitude": 35.366667,
   "longitude": 1.316667
  }
 },
 {
  "city": "Tlemsen",
  "province": "Tlemcen",
  "population": 377400,
  "country": "Algeria",
  "cityUrl": "/wiki/Tilimsen",
  "coordinates": {
   "latitude": 34.882778,
   "longitude": -1.316667
  }
 },
 {
  "city": "Tizi Ouzou",
  "province": "Tizi Ouzou",
  "population": 142900,
  "country": "Algeria",
  "cityUrl": "/wiki/Tizi_Ouzou",
  "coordinates": {
   "latitude": 36.716667,
   "longitude": 4.05
  }
 },
 {
  "city": "Oran",
  "province": "Oran",
  "population": 803300,
  "country": "Algeria",
  "cityUrl": "/wiki/Wahran",
  "coordinates": {
   "latitude": 35.696944,
   "longitude": -0.633056
  }
 },
 {
  "city": "Ouargla",
  "province": "Ouargla",
  "population": 133000,
  "country": "Algeria",
  "cityUrl": "/wiki/Wargla",
  "coordinates": {
   "latitude": 31.95,
   "longitude": 5.316667
  }
 },
 {
  "city": "Benguela",
  "province": "Benguela",
  "population": 561700,
  "country": "Angola",
  "cityUrl": "/wiki/Benguela",
  "coordinates": {
   "latitude": -12.55,
   "longitude": 13.416667
  }
 },
 {
  "city": "Caála",
  "province": "Huambo",
  "population": 279700,
  "country": "Angola",
  "cityUrl": "/wiki/Ca%C3%A1la",
  "coordinates": {
   "latitude": -12.8525,
   "longitude": 15.560556
  }
 },
 {
  "city": "Cabinda",
  "province": "Cabinda",
  "population": 624600,
  "country": "Angola",
  "cityUrl": "/wiki/Cabinda_(city)",
  "coordinates": {
   "latitude": -5.56,
   "longitude": 12.19
  }
 },
 {
  "city": "Dundo",
  "province": "Lunda Norte",
  "population": 177600,
  "country": "Angola",
  "cityUrl": "/wiki/Dundo",
  "coordinates": {
   "latitude": -7.380111,
   "longitude": 20.835056
  }
 },
 {
  "city": "Gabela",
  "province": "Cuanza Sul",
  "population": 184700,
  "country": "Angola",
  "cityUrl": "/wiki/Gabela,_Angola",
  "coordinates": {
   "latitude": -10.85,
   "longitude": 14.366667
  }
 },
 {
  "city": "Huambo",
  "province": "Huambo",
  "population": 713100,
  "country": "Angola",
  "cityUrl": "/wiki/Huambo",
  "coordinates": {
   "latitude": -12.776667,
   "longitude": 15.734722
  }
 },
 {
  "city": "Kuito",
  "province": "Bié",
  "population": 450800,
  "country": "Angola",
  "cityUrl": "/wiki/Kuito",
  "coordinates": {
   "latitude": -12.383333,
   "longitude": 16.933333
  }
 },
 {
  "city": "Lobito",
  "province": "Benguela",
  "population": 393000,
  "country": "Angola",
  "cityUrl": "/wiki/Lobito",
  "coordinates": {
   "latitude": -12.35,
   "longitude": 13.546389
  }
 },
 {
  "city": "Luanda",
  "province": "Luanda",
  "population": 2571800,
  "country": "Angola",
  "cityUrl": "/wiki/Luanda",
  "coordinates": {
   "latitude": -8.838333,
   "longitude": 13.234444
  }
 },
 {
  "city": "Lubango",
  "province": "Huíla",
  "population": 776200,
  "country": "Angola",
  "cityUrl": "/wiki/Lubango",
  "coordinates": {
   "latitude": -14.916667,
   "longitude": 13.5
  }
 },
 {
  "city": "Lucapa",
  "province": "Lunda Norte",
  "population": 154300,
  "country": "Angola",
  "cityUrl": "/wiki/Lucapa",
  "coordinates": {
   "latitude": -8.422778,
   "longitude": 20.739167
  }
 },
 {
  "city": "Luena",
  "province": "Moxico",
  "population": 357400,
  "country": "Angola",
  "cityUrl": "/wiki/Luena,_Angola",
  "coordinates": {
   "latitude": -11.7918,
   "longitude": 19.9062
  }
 },
 {
  "city": "Malanje",
  "province": "Malanje",
  "population": 506800,
  "country": "Angola",
  "cityUrl": "/wiki/Malanje",
  "coordinates": {
   "latitude": -9.533333,
   "longitude": 16.35
  }
 },
 {
  "city": "M'banza-Kongo",
  "province": "Zaire",
  "population": 180300,
  "country": "Angola",
  "cityUrl": "/wiki/M%27banza-Kongo",
  "coordinates": {
   "latitude": -6.267778,
   "longitude": 14.248056
  }
 },
 {
  "city": "Menongue",
  "province": "Cuando Cubango",
  "population": 320900,
  "country": "Angola",
  "cityUrl": "/wiki/Menongue",
  "coordinates": {
   "latitude": -14.655556,
   "longitude": 17.684167
  }
 },
 {
  "city": "Moçâmedes",
  "province": "Namibe",
  "population": 292500,
  "country": "Angola",
  "cityUrl": "/wiki/Mo%C3%A7%C3%A2medes",
  "coordinates": {
   "latitude": -15.195278,
   "longitude": 12.150833
  }
 },
 {
  "city": "Negage",
  "province": "Uíge",
  "population": 137500,
  "country": "Angola",
  "cityUrl": "/wiki/Negage",
  "coordinates": {
   "latitude": -7.766667,
   "longitude": 15.266667
  }
 },
 {
  "city": "N'dalatando",
  "province": "Cuanza Norte",
  "population": 168800,
  "country": "Angola",
  "cityUrl": "/wiki/N%27dalatando",
  "coordinates": {
   "latitude": -9.3,
   "longitude": 14.916667
  }
 },
 {
  "city": "Ondjiva",
  "province": "Cunene",
  "population": 187900,
  "country": "Angola",
  "cityUrl": "/wiki/Ondjiva",
  "coordinates": {
   "latitude": -17.066667,
   "longitude": 15.733333
  }
 },
 {
  "city": "Saurimo",
  "province": "Lunda Sul",
  "population": 442400,
  "country": "Angola",
  "cityUrl": "/wiki/Saurimo",
  "coordinates": {
   "latitude": -9.65,
   "longitude": 20.4
  }
 },
 {
  "city": "Soyo",
  "province": "Zaire",
  "population": 266900,
  "country": "Angola",
  "cityUrl": "/wiki/Soyo",
  "coordinates": {
   "latitude": -6.133333,
   "longitude": 12.366667
  }
 },
 {
  "city": "Sumbe",
  "province": "Cuanza Sul",
  "population": 279900,
  "country": "Angola",
  "cityUrl": "/wiki/Sumbe",
  "coordinates": {
   "latitude": -11.205278,
   "longitude": 13.841667
  }
 },
 {
  "city": "Uíge",
  "province": "Uíge",
  "population": 616600,
  "country": "Angola",
  "cityUrl": "/wiki/U%C3%ADge",
  "coordinates": {
   "latitude": -7.616667,
   "longitude": 15.05
  }
 },
 {
  "city": "Bahía Blanca",
  "province": "Buenos Aires",
  "population": 334505,
  "country": "Argentina",
  "cityUrl": "/wiki/Bah%C3%ADa_Blanca",
  "coordinates": {
   "latitude": -38.716667,
   "longitude": -62.266667
  }
 },
 {
  "city": "Bariloche",
  "province": "Río Negro",
  "population": 161443,
  "country": "Argentina",
  "cityUrl": "/wiki/Bariloche",
  "coordinates": {
   "latitude": -41.15,
   "longitude": -71.3
  }
 },
 {
  "city": "Berisso",
  "province": "Buenos Aires",
  "population": 100685,
  "country": "Argentina",
  "cityUrl": "/wiki/Berisso",
  "coordinates": {
   "latitude": -34.872778,
   "longitude": -57.885833
  }
 },
 {
  "city": "Buenos Aires",
  "province": "Autonomous City of Buenos Aires",
  "population": 10801336,
  "country": "Argentina",
  "cityUrl": "/wiki/Buenos_Aires",
  "coordinates": {
   "latitude": -34.603611,
   "longitude": -58.381389
  }
 },
 {
  "city": "Campana",
  "province": "Buenos Aires",
  "population": 107976,
  "country": "Argentina",
  "cityUrl": "/wiki/Campana,_Buenos_Aires",
  "coordinates": {
   "latitude": -34.166667,
   "longitude": -58.916667
  }
 },
 {
  "city": "Catamarca",
  "province": "Catamarca",
  "population": 186466,
  "country": "Argentina",
  "cityUrl": "/wiki/San_Fernando_del_Valle_de_Catamarca",
  "coordinates": {
   "latitude": -28.466667,
   "longitude": -65.783333
  }
 },
 {
  "city": "Comodoro Rivadavia",
  "province": "Chubut",
  "population": 214829,
  "country": "Argentina",
  "cityUrl": "/wiki/Comodoro_Rivadavia",
  "coordinates": {
   "latitude": -45.864722,
   "longitude": -67.480833
  }
 },
 {
  "city": "Concordia",
  "province": "Entre Ríos",
  "population": 197603,
  "country": "Argentina",
  "cityUrl": "/wiki/Concordia,_Entre_R%C3%ADos",
  "coordinates": {
   "latitude": -31.4,
   "longitude": -58.033333
  }
 },
 {
  "city": "Córdoba",
  "province": "Córdoba",
  "population": 1498060,
  "country": "Argentina",
  "cityUrl": "/wiki/C%C3%B3rdoba,_Argentina",
  "coordinates": {
   "latitude": -31.416667,
   "longitude": -64.183333
  }
 },
 {
  "city": "Corrientes",
  "province": "Corrientes",
  "population": 437446,
  "country": "Argentina",
  "cityUrl": "/wiki/Corrientes",
  "coordinates": {
   "latitude": -27.483333,
   "longitude": -58.816667
  }
 },
 {
  "city": "Formosa",
  "province": "Formosa",
  "population": 268572,
  "country": "Argentina",
  "cityUrl": "/wiki/Formosa,_Argentina",
  "coordinates": {
   "latitude": -26.183333,
   "longitude": -58.183333
  }
 },
 {
  "city": "Godoy Cruz",
  "province": "Mendoza",
  "population": 194557,
  "country": "Argentina",
  "cityUrl": "/wiki/Godoy_Cruz,_Mendoza",
  "coordinates": {
   "latitude": -32.916667,
   "longitude": -68.833333
  }
 },
 {
  "city": "Las Heras",
  "province": "Mendoza",
  "population": 233839,
  "country": "Argentina",
  "cityUrl": "/wiki/Las_Heras,_Mendoza",
  "coordinates": {
   "latitude": -32.85,
   "longitude": -68.816667
  }
 },
 {
  "city": "Luján de Cuyo",
  "province": "Mendoza",
  "population": 171883,
  "country": "Argentina",
  "cityUrl": "/wiki/Luj%C3%A1n_de_Cuyo",
  "coordinates": {
   "latitude": -32.998,
   "longitude": -68.873
  }
 },
 {
  "city": "Mendoza",
  "province": "Mendoza",
  "population": 123715,
  "country": "Argentina",
  "cityUrl": "/wiki/Mendoza,_Argentina",
  "coordinates": {
   "latitude": -32.889722,
   "longitude": -68.844444
  }
 },
 {
  "city": "Neuquén",
  "province": "Neuquén",
  "population": 467217,
  "country": "Argentina",
  "cityUrl": "/wiki/Neuqu%C3%A9n",
  "coordinates": {
   "latitude": -38.9525,
   "longitude": -68.064167
  }
 },
 {
  "city": "Paraná",
  "province": "Entre Ríos",
  "population": 388716,
  "country": "Argentina",
  "cityUrl": "/wiki/Paran%C3%A1,_Entre_R%C3%ADos",
  "coordinates": {
   "latitude": -31.733056,
   "longitude": -60.529722
  }
 },
 {
  "city": "La Plata",
  "province": "Buenos Aires",
  "population": 756074,
  "country": "Argentina",
  "cityUrl": "/wiki/La_Plata",
  "coordinates": {
   "latitude": -34.921111,
   "longitude": -57.954444
  }
 },
 {
  "city": "Posadas",
  "province": "Misiones",
  "population": 391498,
  "country": "Argentina",
  "cityUrl": "/wiki/Posadas,_Misiones",
  "coordinates": {
   "latitude": -27.366667,
   "longitude": -55.9
  }
 },
 {
  "city": "Resistencia",
  "province": "Chaco",
  "population": 413764,
  "country": "Argentina",
  "cityUrl": "/wiki/Resistencia,_Chaco",
  "coordinates": {
   "latitude": -27.451389,
   "longitude": -58.986667
  }
 },
 {
  "city": "Río Cuarto",
  "province": "Córdoba",
  "population": 277979,
  "country": "Argentina",
  "cityUrl": "/wiki/R%C3%ADo_Cuarto,_C%C3%B3rdoba",
  "coordinates": {
   "latitude": -33.133333,
   "longitude": -64.35
  }
 },
 {
  "city": "Río Gallegos",
  "province": "Santa Cruz",
  "population": 137309,
  "country": "Argentina",
  "cityUrl": "/wiki/R%C3%ADo_Gallegos,_Santa_Cruz",
  "coordinates": {
   "latitude": -51.623333,
   "longitude": -69.216111
  }
 },
 {
  "city": "La Rioja",
  "province": "La Rioja",
  "population": 210507,
  "country": "Argentina",
  "cityUrl": "/wiki/La_Rioja,_Argentina",
  "coordinates": {
   "latitude": -29.4125,
   "longitude": -66.854167
  }
 },
 {
  "city": "Rosario",
  "province": "Santa Fe",
  "population": 1337958,
  "country": "Argentina",
  "cityUrl": "/wiki/Rosario,_Santa_Fe",
  "coordinates": {
   "latitude": -32.9575,
   "longitude": -60.639444
  }
 },
 {
  "city": "Salta",
  "province": "Salta",
  "population": 624003,
  "country": "Argentina",
  "cityUrl": "/wiki/Salta",
  "coordinates": {
   "latitude": -24.783333,
   "longitude": -65.416667
  }
 },
 {
  "city": "San Juan",
  "province": "San Juan",
  "population": 260769,
  "country": "Argentina",
  "cityUrl": "/wiki/San_Juan,_Argentina",
  "coordinates": {
   "latitude": -31.534167,
   "longitude": -68.526111
  }
 },
 {
  "city": "San Luis",
  "province": "San Luis",
  "population": 221400,
  "country": "Argentina",
  "cityUrl": "/wiki/San_Luis,_Argentina",
  "coordinates": {
   "latitude": -33.3,
   "longitude": -66.333333
  }
 },
 {
  "city": "San Martín",
  "province": "Mendoza",
  "population": 139406,
  "country": "Argentina",
  "cityUrl": "/wiki/San_Mart%C3%ADn,_Mendoza",
  "coordinates": {
   "latitude": -33.080556,
   "longitude": -68.470556
  }
 },
 {
  "city": "San Nicolás",
  "province": "Buenos Aires",
  "population": 166657,
  "country": "Argentina",
  "cityUrl": "/wiki/San_Nicol%C3%A1s_de_los_Arroyos",
  "coordinates": {
   "latitude": -33.333333,
   "longitude": -60.216667
  }
 },
 {
  "city": "San Rafael",
  "province": "Mendoza",
  "population": 213204,
  "country": "Argentina",
  "cityUrl": "/wiki/San_Rafael,_Mendoza",
  "coordinates": {
   "latitude": -34.6,
   "longitude": -68.333333
  }
 },
 {
  "city": "San Salvador de Jujuy",
  "province": "Jujuy",
  "population": 319469,
  "country": "Argentina",
  "cityUrl": "/wiki/San_Salvador_de_Jujuy",
  "coordinates": {
   "latitude": -24.183333,
   "longitude": -65.3
  }
 },
 {
  "city": "Santa Fe",
  "province": "Santa Fe",
  "population": 568259,
  "country": "Argentina",
  "cityUrl": "/wiki/Santa_Fe,_Argentina",
  "coordinates": {
   "latitude": -31.633333,
   "longitude": -60.7
  }
 },
 {
  "city": "Santa Rosa",
  "province": "La Pampa",
  "population": 118504,
  "country": "Argentina",
  "cityUrl": "/wiki/Santa_Rosa,_La_Pampa",
  "coordinates": {
   "latitude": -36.616667,
   "longitude": -64.283333
  }
 },
 {
  "city": "Santiago del Estero",
  "province": "Santiago del Estero",
  "population": 328824,
  "country": "Argentina",
  "cityUrl": "/wiki/Santiago_del_Estero",
  "coordinates": {
   "latitude": -27.783333,
   "longitude": -64.266667
  }
 },
 {
  "city": "Tucumán",
  "province": "Tucumán",
  "population": 587289,
  "country": "Argentina",
  "cityUrl": "/wiki/San_Miguel_de_Tucum%C3%A1n",
  "coordinates": {
   "latitude": -26.833056,
   "longitude": -65.216667
  }
 },
 {
  "city": "Trelew",
  "province": "Chubut",
  "population": 144420,
  "country": "Argentina",
  "cityUrl": "/wiki/Trelew",
  "coordinates": {
   "latitude": -43.25,
   "longitude": -65.3
  }
 },
 {
  "city": "Yerevan",
  "province": "Yerevan",
  "population": 1086677,
  "country": "Armenia",
  "cityUrl": "/wiki/Yerevan",
  "coordinates": {
   "latitude": 40.181389,
   "longitude": 44.514444
  }
 },
 {
  "city": "Gyumri",
  "province": "Shirak",
  "population": 112301,
  "country": "Armenia",
  "cityUrl": "/wiki/Gyumri",
  "coordinates": {
   "latitude": 40.789444,
   "longitude": 43.8475
  }
 },
 {
  "city": "Sydney",
  "province": "New South Wales",
  "population": 4698656,
  "country": "Australia",
  "cityUrl": "/wiki/Sydney",
  "coordinates": {
   "latitude": -33.866667,
   "longitude": 151.2
  }
 },
 {
  "city": "Melbourne",
  "province": "Victoria",
  "population": 4585537,
  "country": "Australia",
  "cityUrl": "/wiki/Melbourne",
  "coordinates": {
   "latitude": -37.814167,
   "longitude": 144.963056
  }
 },
 {
  "city": "Brisbane",
  "province": "Queensland",
  "population": 2287896,
  "country": "Australia",
  "cityUrl": "/wiki/Brisbane",
  "coordinates": {
   "latitude": -27.467778,
   "longitude": 153.028056
  }
 },
 {
  "city": "Perth",
  "province": "Western Australia",
  "population": 2043762,
  "country": "Australia",
  "cityUrl": "/wiki/Perth",
  "coordinates": {
   "latitude": -31.9558,
   "longitude": 115.8597
  }
 },
 {
  "city": "Adelaide",
  "province": "South Australia",
  "population": 1245011,
  "country": "Australia",
  "cityUrl": "/wiki/Adelaide",
  "coordinates": {
   "latitude": -34.9275,
   "longitude": 138.6
  }
 },
 {
  "city": "Gold Coast",
  "province": "Queensland",
  "population": 607665,
  "country": "Australia",
  "cityUrl": "/wiki/Gold_Coast,_Queensland",
  "coordinates": {
   "latitude": -28.016667,
   "longitude": 153.4
  }
 },
 {
  "city": "Canberra",
  "province": "Australian Capital Territory",
  "population": 452670,
  "country": "Australia",
  "cityUrl": "/wiki/Canberra",
  "coordinates": {
   "latitude": -35.293056,
   "longitude": 149.126944
  }
 },
 {
  "city": "Newcastle",
  "province": "New South Wales",
  "population": 348539,
  "country": "Australia",
  "cityUrl": "/wiki/Newcastle,_New_South_Wales",
  "coordinates": {
   "latitude": -32.930556,
   "longitude": 151.754167
  }
 },
 {
  "city": "Central Coast",
  "province": "New South Wales",
  "population": 325255,
  "country": "Australia",
  "cityUrl": "/wiki/Central_Coast_(New_South_Wales)",
  "coordinates": {
   "latitude": -33.3,
   "longitude": 151.2
  }
 },
 {
  "city": "Sunshine Coast",
  "province": "Queensland",
  "population": 284131,
  "country": "Australia",
  "cityUrl": "/wiki/Sunshine_Coast,_Queensland",
  "coordinates": {
   "latitude": -26.654167,
   "longitude": 153.093333
  }
 },
 {
  "city": "Wollongong",
  "province": "New South Wales",
  "population": 280153,
  "country": "Australia",
  "cityUrl": "/wiki/Wollongong",
  "coordinates": {
   "latitude": -34.427243,
   "longitude": 150.893915
  }
 },
 {
  "city": "Hobart",
  "province": "Tasmania",
  "population": 197451,
  "country": "Australia",
  "cityUrl": "/wiki/Hobart",
  "coordinates": {
   "latitude": -42.880556,
   "longitude": 147.325
  }
 },
 {
  "city": "Geelong",
  "province": "Victoria",
  "population": 180239,
  "country": "Australia",
  "cityUrl": "/wiki/Geelong",
  "coordinates": {
   "latitude": -38.15,
   "longitude": 144.35
  }
 },
 {
  "city": "Townsville",
  "province": "Queensland",
  "population": 173724,
  "country": "Australia",
  "cityUrl": "/wiki/Townsville",
  "coordinates": {
   "latitude": -19.25,
   "longitude": 146.816667
  }
 },
 {
  "city": "Cairns",
  "province": "Queensland",
  "population": 153181,
  "country": "Australia",
  "cityUrl": "/wiki/Cairns",
  "coordinates": {
   "latitude": -16.92,
   "longitude": 145.78
  }
 },
 {
  "city": "Darwin",
  "province": "Northern Territory",
  "population": 122207,
  "country": "Australia",
  "cityUrl": "/wiki/Darwin,_Northern_Territory",
  "coordinates": {
   "latitude": -12.438056,
   "longitude": 130.841111
  }
 },
 {
  "city": "Toowoomba",
  "province": "Queensland",
  "population": 108398,
  "country": "Australia",
  "cityUrl": "/wiki/Toowoomba",
  "coordinates": {
   "latitude": -27.566667,
   "longitude": 151.95
  }
 },
 {
  "city": "Ballarat",
  "province": "Victoria",
  "population": 105348,
  "country": "Australia",
  "cityUrl": "/wiki/Ballarat",
  "coordinates": {
   "latitude": -37.560833,
   "longitude": 143.8475
  }
 },
 {
  "city": "Bendigo",
  "province": "Victoria",
  "population": 100649,
  "country": "Australia",
  "cityUrl": "/wiki/Bendigo",
  "coordinates": {
   "latitude": -36.75,
   "longitude": 144.266667
  }
 },
 {
  "city": "Graz",
  "province": "Styria",
  "population": 291134,
  "country": "Austria",
  "cityUrl": "/wiki/Graz",
  "coordinates": {
   "latitude": 47.070833,
   "longitude": 15.438611
  }
 },
 {
  "city": "Innsbruck",
  "province": "Tyrol",
  "population": 131059,
  "country": "Austria",
  "cityUrl": "/wiki/Innsbruck",
  "coordinates": {
   "latitude": 47.268333,
   "longitude": 11.393333
  }
 },
 {
  "city": "Klagenfurt",
  "province": "Carinthia",
  "population": 101765,
  "country": "Austria",
  "cityUrl": "/wiki/Klagenfurt",
  "coordinates": {
   "latitude": 46.616667,
   "longitude": 14.3
  }
 },
 {
  "city": "Linz",
  "province": "Upper Austria",
  "population": 206537,
  "country": "Austria",
  "cityUrl": "/wiki/Linz",
  "coordinates": {
   "latitude": 48.305833,
   "longitude": 14.286389
  }
 },
 {
  "city": "Salzburg",
  "province": "Salzburg",
  "population": 155416,
  "country": "Austria",
  "cityUrl": "/wiki/Salzburg",
  "coordinates": {
   "latitude": 47.8,
   "longitude": 13.045
  }
 },
 {
  "city": "Vienna",
  "province": "Vienna",
  "population": 1920949,
  "country": "Austria",
  "cityUrl": "/wiki/Vienna",
  "coordinates": {
   "latitude": 48.208333,
   "longitude": 16.3725
  }
 },
 {
  "city": "Baku",
  "province": "Baku",
  "population": 2336600,
  "country": "Azerbaijan",
  "cityUrl": "/wiki/Baku",
  "coordinates": {
   "latitude": 40.395278,
   "longitude": 49.882222
  }
 },
 {
  "city": "Ganja",
  "province": "Ganja-Dashkasan",
  "population": 330300,
  "country": "Azerbaijan",
  "cityUrl": "/wiki/Ganja,_Azerbaijan",
  "coordinates": {
   "latitude": 40.682778,
   "longitude": 46.360556
  }
 },
 {
  "city": "Mingachevir",
  "province": "Central Aran",
  "population": 102400,
  "country": "Azerbaijan",
  "cityUrl": "/wiki/Mingachevir",
  "coordinates": {
   "latitude": 40.77,
   "longitude": 47.048889
  }
 },
 {
  "city": "Sumgait",
  "province": "Absheron-Khizi",
  "population": 426000,
  "country": "Azerbaijan",
  "cityUrl": "/wiki/Sumgait",
  "coordinates": {
   "latitude": 40.589722,
   "longitude": 49.668611
  }
 },
 {
  "city": "Nassau",
  "province": "New Providence",
  "population": 296522,
  "country": "Bahamas",
  "cityUrl": "/wiki/Nassau,_The_Bahamas",
  "coordinates": {
   "latitude": 25.044167,
   "longitude": -77.350278
  }
 },
 {
  "city": "Manama",
  "province": "Capital",
  "population": 297502,
  "country": "Bahrain",
  "cityUrl": "/wiki/Manama",
  "coordinates": {
   "latitude": 26.223333,
   "longitude": 50.5875
  }
 },
 {
  "city": "Muharraq",
  "province": "Muharraq",
  "population": 176583,
  "country": "Bahrain",
  "cityUrl": "/wiki/Muharraq",
  "coordinates": {
   "latitude": 26.25,
   "longitude": 50.616667
  }
 },
 {
  "city": "Hamad Town",
  "province": "Northern",
  "population": 133550,
  "country": "Bahrain",
  "cityUrl": "/wiki/Hamad_Town",
  "coordinates": {
   "latitude": 26.112778,
   "longitude": 50.513889
  }
 },
 {
  "city": "Riffa",
  "province": "Southern",
  "population": 115495,
  "country": "Bahrain",
  "cityUrl": "/wiki/Riffa",
  "coordinates": {
   "latitude": 26.13,
   "longitude": 50.555
  }
 },
 {
  "city": "A'ali",
  "province": "Northern",
  "population": 100533,
  "country": "Bahrain",
  "cityUrl": "/wiki/A%27ali",
  "coordinates": {
   "latitude": 26.151944,
   "longitude": 50.525556
  }
 },
 {
  "city": "Barisal",
  "province": "Barisal",
  "population": 328200,
  "country": "Bangladesh",
  "cityUrl": "/wiki/Barisal",
  "coordinates": {
   "latitude": 22.71,
   "longitude": 90.363
  }
 },
 {
  "city": "Chittagong",
  "province": "Chittagong",
  "population": 8440000,
  "country": "Bangladesh",
  "cityUrl": "/wiki/Chittagong",
  "coordinates": {
   "latitude": 22.335,
   "longitude": 91.8325
  }
 },
 {
  "city": "Comilla",
  "province": "Chittagong",
  "population": 296000,
  "country": "Bangladesh",
  "cityUrl": "/wiki/Comilla",
  "coordinates": {
   "latitude": 23.45,
   "longitude": 91.2
  }
 },
 {
  "city": "Dhaka",
  "province": "Dhaka",
  "population": 8906000,
  "country": "Bangladesh",
  "cityUrl": "/wiki/Dhaka",
  "coordinates": {
   "latitude": 23.804167,
   "longitude": 90.415278
  }
 },
 {
  "city": "Gazipur",
  "province": "Dhaka",
  "population": 213000,
  "country": "Bangladesh",
  "cityUrl": "/wiki/Gazipur",
  "coordinates": {
   "latitude": 23.988889,
   "longitude": 90.375
  }
 },
 {
  "city": "Khulna",
  "province": "Khulna",
  "population": 663300,
  "country": "Bangladesh",
  "cityUrl": "/wiki/Khulna",
  "coordinates": {
   "latitude": 22.82,
   "longitude": 89.55
  }
 },
 {
  "city": "Mymensingh",
  "province": "Mymensingh",
  "population": 476300,
  "country": "Bangladesh",
  "cityUrl": "/wiki/Mymensingh",
  "coordinates": {
   "latitude": 24.753889,
   "longitude": 90.403056
  }
 },
 {
  "city": "Narayanganj",
  "province": "Dhaka",
  "population": 286300,
  "country": "Bangladesh",
  "cityUrl": "/wiki/Narayanganj",
  "coordinates": {
   "latitude": 23.62,
   "longitude": 90.5
  }
 },
 {
  "city": "Rajshahi",
  "province": "Rajshahi",
  "population": 763900,
  "country": "Bangladesh",
  "cityUrl": "/wiki/Rajshahi",
  "coordinates": {
   "latitude": 24.366667,
   "longitude": 88.6
  }
 },
 {
  "city": "Rangpur",
  "province": "Rangpur",
  "population": 407000,
  "country": "Bangladesh",
  "cityUrl": "/wiki/Rangpur,_Bangladesh",
  "coordinates": {
   "latitude": 25.749,
   "longitude": 89.247
  }
 },
 {
  "city": "Bogra",
  "province": "Rajshahi",
  "population": 400983,
  "country": "Bangladesh",
  "cityUrl": "/wiki/Bogra",
  "coordinates": {
   "latitude": 24.85,
   "longitude": 89.366667
  }
 },
 {
  "city": "Sylhet",
  "province": "Sylhet",
  "population": 526400,
  "country": "Bangladesh",
  "cityUrl": "/wiki/Sylhet",
  "coordinates": {
   "latitude": 24.9,
   "longitude": 91.866667
  }
 },
 {
  "city": "Jashore",
  "province": "Khulna",
  "population": 237478,
  "country": "Bangladesh",
  "cityUrl": "/wiki/Jessore",
  "coordinates": {
   "latitude": 23.167,
   "longitude": 89.209
  }
 },
 {
  "city": "Bridgetown",
  "province": "Saint Michael",
  "population": 110000,
  "country": "Barbados",
  "cityUrl": "/wiki/Bridgetown",
  "coordinates": {
   "latitude": 13.096944,
   "longitude": -59.613056
  }
 },
 {
  "city": "Babruysk",
  "province": "Mogilev",
  "population": 208611,
  "country": "Belarus",
  "cityUrl": "/wiki/Babruysk",
  "coordinates": {
   "latitude": 53.15,
   "longitude": 29.233333
  }
 },
 {
  "city": "Baranavichy",
  "province": "Brest",
  "population": 172150,
  "country": "Belarus",
  "cityUrl": "/wiki/Baranavichy",
  "coordinates": {
   "latitude": 53.133333,
   "longitude": 26.016667
  }
 },
 {
  "city": "Barysaw",
  "province": "Minsk",
  "population": 136409,
  "country": "Belarus",
  "cityUrl": "/wiki/Barysaw",
  "coordinates": {
   "latitude": 54.233333,
   "longitude": 28.5
  }
 },
 {
  "city": "Brest",
  "province": "Brest",
  "population": 342461,
  "country": "Belarus",
  "cityUrl": "/wiki/Brest,_Belarus",
  "coordinates": {
   "latitude": 52.134722,
   "longitude": 23.656944
  }
 },
 {
  "city": "Gomel",
  "province": "Gomel",
  "population": 501802,
  "country": "Belarus",
  "cityUrl": "/wiki/Gomel",
  "coordinates": {
   "latitude": 52.445278,
   "longitude": 30.984167
  }
 },
 {
  "city": "Grodno",
  "province": "Grodno",
  "population": 358717,
  "country": "Belarus",
  "cityUrl": "/wiki/Grodno",
  "coordinates": {
   "latitude": 53.666667,
   "longitude": 23.833333
  }
 },
 {
  "city": "Lida",
  "province": "Grodno",
  "population": 103915,
  "country": "Belarus",
  "cityUrl": "/wiki/Lida",
  "coordinates": {
   "latitude": 53.895556,
   "longitude": 25.295833
  }
 },
 {
  "city": "Mazyr",
  "province": "Gomel",
  "population": 105321,
  "country": "Belarus",
  "cityUrl": "/wiki/Mazyr",
  "coordinates": {
   "latitude": 52.05,
   "longitude": 29.25
  }
 },
 {
  "city": "Minsk",
  "province": "City of Minsk",
  "population": 1995471,
  "country": "Belarus",
  "cityUrl": "/wiki/Minsk",
  "coordinates": {
   "latitude": 53.900556,
   "longitude": 27.558611
  }
 },
 {
  "city": "Mogilev",
  "province": "Mogilev",
  "population": 353338,
  "country": "Belarus",
  "cityUrl": "/wiki/Mogilev",
  "coordinates": {
   "latitude": 53.916667,
   "longitude": 30.35
  }
 },
 {
  "city": "Orsha",
  "province": "Vitebsk",
  "population": 103658,
  "country": "Belarus",
  "cityUrl": "/wiki/Orsha",
  "coordinates": {
   "latitude": 54.509167,
   "longitude": 30.425833
  }
 },
 {
  "city": "Pinsk",
  "province": "Brest",
  "population": 124613,
  "country": "Belarus",
  "cityUrl": "/wiki/Pinsk",
  "coordinates": {
   "latitude": 52.115278,
   "longitude": 26.103056
  }
 },
 {
  "city": "Vitebsk",
  "province": "Vitebsk",
  "population": 359148,
  "country": "Belarus",
  "cityUrl": "/wiki/Vitebsk",
  "coordinates": {
   "latitude": 55.191667,
   "longitude": 30.205556
  }
 },
 {
  "city": "Anderlecht",
  "province": "Brussels",
  "population": 125883,
  "country": "Belgium",
  "cityUrl": "/wiki/Anderlecht",
  "coordinates": {
   "latitude": 50.833333,
   "longitude": 4.333333
  }
 },
 {
  "city": "Antwerp",
  "province": "Flanders",
  "population": 542417,
  "country": "Belgium",
  "cityUrl": "/wiki/Antwerp",
  "coordinates": {
   "latitude": 51.217778,
   "longitude": 4.400278
  }
 },
 {
  "city": "Bruges",
  "province": "Flanders",
  "population": 119748,
  "country": "Belgium",
  "cityUrl": "/wiki/Bruges",
  "coordinates": {
   "latitude": 51.208889,
   "longitude": 3.224167
  }
 },
 {
  "city": "Brussels",
  "province": "Brussels",
  "population": 195546,
  "country": "Belgium",
  "cityUrl": "/wiki/City_of_Brussels",
  "coordinates": {
   "latitude": 50.846667,
   "longitude": 4.3525
  }
 },
 {
  "city": "Charleroi",
  "province": "Wallonia",
  "population": 203950,
  "country": "Belgium",
  "cityUrl": "/wiki/Charleroi",
  "coordinates": {
   "latitude": 50.4,
   "longitude": 4.433333
  }
 },
 {
  "city": "Ghent",
  "province": "Flanders",
  "population": 269191,
  "country": "Belgium",
  "cityUrl": "/wiki/Ghent",
  "coordinates": {
   "latitude": 51.053611,
   "longitude": 3.725278
  }
 },
 {
  "city": "Liège",
  "province": "Wallonia",
  "population": 194994,
  "country": "Belgium",
  "cityUrl": "/wiki/Li%C3%A8ge",
  "coordinates": {
   "latitude": 50.639722,
   "longitude": 5.570556
  }
 },
 {
  "city": "Leuven",
  "province": "Flemish",
  "population": 103868,
  "country": "Belgium",
  "cityUrl": "/wiki/Leuven",
  "coordinates": {
   "latitude": 50.883333,
   "longitude": 4.7
  }
 },
 {
  "city": "Namur",
  "province": "Wallonia",
  "population": 114007,
  "country": "Belgium",
  "cityUrl": "/wiki/Namur",
  "coordinates": {
   "latitude": 50.466667,
   "longitude": 4.866667
  }
 },
 {
  "city": "Schaerbeek",
  "province": "Brussels",
  "population": 129853,
  "country": "Belgium",
  "cityUrl": "/wiki/Schaerbeek",
  "coordinates": {
   "latitude": 50.8675,
   "longitude": 4.373611
  }
 },
 {
  "city": "Cotonou",
  "province": "Littoral",
  "population": 679012,
  "country": "Benin",
  "cityUrl": "/wiki/Cotonou",
  "coordinates": {
   "latitude": 6.366667,
   "longitude": 2.433333
  }
 },
 {
  "city": "Porto-Novo",
  "province": "Ouémé",
  "population": 264320,
  "country": "Benin",
  "cityUrl": "/wiki/Porto-Novo",
  "coordinates": {
   "latitude": 6.497222,
   "longitude": 2.605
  }
 },
 {
  "city": "Parakou",
  "province": "Borgou",
  "population": 255478,
  "country": "Benin",
  "cityUrl": "/wiki/Parakou",
  "coordinates": {
   "latitude": 9.35,
   "longitude": 2.616667
  }
 },
 {
  "city": "Godomey",
  "province": "Atlantique",
  "population": 253262,
  "country": "Benin",
  "cityUrl": "/wiki/Godomey",
  "coordinates": {
   "latitude": 6.366667,
   "longitude": 2.35
  }
 },
 {
  "city": "Abomey-Calavi",
  "province": "Atlantique",
  "population": 117824,
  "country": "Benin",
  "cityUrl": "/wiki/Abomey-Calavi",
  "coordinates": {
   "latitude": 6.448611,
   "longitude": 2.355556
  }
 },
 {
  "city": "Thimphu",
  "province": "Thimphu",
  "population": 114551,
  "country": "Bhutan",
  "cityUrl": "/wiki/Thimphu",
  "coordinates": {
   "latitude": 27.472222,
   "longitude": 89.636111
  }
 },
 {
  "city": "Cochabamba",
  "province": "Cochabamba",
  "population": 841200,
  "country": "Bolivia",
  "cityUrl": "/wiki/Cochabamba",
  "coordinates": {
   "latitude": -17.388333,
   "longitude": -66.159722
  }
 },
 {
  "city": "El Alto",
  "province": "La Paz",
  "population": 943500,
  "country": "Bolivia",
  "cityUrl": "/wiki/El_Alto",
  "coordinates": {
   "latitude": -16.504722,
   "longitude": -68.163333
  }
 },
 {
  "city": "La Paz",
  "province": "La Paz",
  "population": 816000,
  "country": "Bolivia",
  "cityUrl": "/wiki/La_Paz",
  "coordinates": {
   "latitude": -16.495833,
   "longitude": -68.133333
  }
 },
 {
  "city": "Montero",
  "province": "Santa Cruz",
  "population": 107200,
  "country": "Bolivia",
  "cityUrl": "/wiki/Montero,_Bolivia",
  "coordinates": {
   "latitude": -17.342222,
   "longitude": -63.255833
  }
 },
 {
  "city": "Oruro",
  "province": "Oruro",
  "population": 302600,
  "country": "Bolivia",
  "cityUrl": "/wiki/Oruro,_Bolivia",
  "coordinates": {
   "latitude": -17.966667,
   "longitude": -67.116667
  }
 },
 {
  "city": "Potosí",
  "province": "Potosí",
  "population": 189600,
  "country": "Bolivia",
  "cityUrl": "/wiki/Potos%C3%AD",
  "coordinates": {
   "latitude": -19.589167,
   "longitude": -65.753333
  }
 },
 {
  "city": "Quillacollo",
  "province": "Cochabamba",
  "population": 117800,
  "country": "Bolivia",
  "cityUrl": "/wiki/Quillacollo",
  "coordinates": {
   "latitude": -17.4,
   "longitude": -66.283333
  }
 },
 {
  "city": "Sacaba",
  "province": "Cochabamba",
  "population": 169400,
  "country": "Bolivia",
  "cityUrl": "/wiki/Sacaba",
  "coordinates": {
   "latitude": -17.404167,
   "longitude": -66.040833
  }
 },
 {
  "city": "Santa Cruz",
  "province": "Santa Cruz",
  "population": 1867600,
  "country": "Bolivia",
  "cityUrl": "/wiki/Santa_Cruz_de_la_Sierra",
  "coordinates": {
   "latitude": -17.8,
   "longitude": -63.183333
  }
 },
 {
  "city": "Sucre",
  "province": "Chuquisaca",
  "population": 259300,
  "country": "Bolivia",
  "cityUrl": "/wiki/Sucre",
  "coordinates": {
   "latitude": -19.0475,
   "longitude": -65.26
  }
 },
 {
  "city": "Tarija",
  "province": "Tarija",
  "population": 247000,
  "country": "Bolivia",
  "cityUrl": "/wiki/Tarija",
  "coordinates": {
   "latitude": -21.533333,
   "longitude": -64.733333
  }
 },
 {
  "city": "Trinidad",
  "province": "Beni",
  "population": 130600,
  "country": "Bolivia",
  "cityUrl": "/wiki/Trinidad,_Bolivia",
  "coordinates": {
   "latitude": -14.829167,
   "longitude": -64.901389
  }
 },
 {
  "city": "Sarajevo",
  "province": "Sarajevo Canton",
  "population": 348363,
  "country": "Bosnia and Herzegovina",
  "cityUrl": "/wiki/Sarajevo",
  "coordinates": {
   "latitude": 43.856389,
   "longitude": 18.413056
  }
 },
 {
  "city": "Banja Luka",
  "province": "Republika Srpska",
  "population": 135059,
  "country": "Bosnia and Herzegovina",
  "cityUrl": "/wiki/Banja_Luka",
  "coordinates": {
   "latitude": 44.7725,
   "longitude": 17.1925
  }
 },
 {
  "city": "Gaborone",
  "province": "South-East District",
  "population": 246325,
  "country": "Botswana",
  "cityUrl": "/wiki/Gaborone",
  "coordinates": {
   "latitude": -24.658056,
   "longitude": 25.912222
  }
 },
 {
  "city": "Francistown",
  "province": "North-East District",
  "population": 103417,
  "country": "Botswana",
  "cityUrl": "/wiki/Francistown",
  "coordinates": {
   "latitude": -21.173611,
   "longitude": 27.5125
  }
 },
 {
  "city": "Abaetetuba",
  "province": "Pará",
  "population": 159000,
  "country": "Brazil",
  "cityUrl": "/wiki/Abaetetuba",
  "coordinates": {
   "latitude": -1.717778,
   "longitude": -48.882778
  }
 },
 {
  "city": "Abreu e Lima",
  "province": "Pernambuco",
  "population": 100300,
  "country": "Brazil",
  "cityUrl": "/wiki/Abreu_e_Lima,_Pernambuco",
  "coordinates": {
   "latitude": -7.911667,
   "longitude": -34.902778
  }
 },
 {
  "city": "Açailândia",
  "province": "Maranhão",
  "population": 113100,
  "country": "Brazil",
  "cityUrl": "/wiki/A%C3%A7ail%C3%A2ndia",
  "coordinates": {
   "latitude": -4.946944,
   "longitude": -47.505
  }
 },
 {
  "city": "Aguas Lindas de Goiás",
  "province": "Goiás",
  "population": 217600,
  "country": "Brazil",
  "cityUrl": "/wiki/Aguas_Lindas_de_Goi%C3%A1s",
  "coordinates": {
   "latitude": -15.754444,
   "longitude": -48.281944
  }
 },
 {
  "city": "Alagoinhas",
  "province": "Bahia",
  "population": 152300,
  "country": "Brazil",
  "cityUrl": "/wiki/Alagoinhas",
  "coordinates": {
   "latitude": -12.135833,
   "longitude": -38.418889
  }
 },
 {
  "city": "Almirante Tamandaré",
  "province": "Paraná",
  "population": 120000,
  "country": "Brazil",
  "cityUrl": "/wiki/Almirante_Tamandar%C3%A9,_Paran%C3%A1",
  "coordinates": {
   "latitude": -25.325,
   "longitude": -49.31
  }
 },
 {
  "city": "Altamira",
  "province": "Pará",
  "population": 115900,
  "country": "Brazil",
  "cityUrl": "/wiki/Altamira,_Par%C3%A1",
  "coordinates": {
   "latitude": -3.202778,
   "longitude": -52.205833
  }
 },
 {
  "city": "Alvorada",
  "province": "Rio Grande do Sul",
  "population": 211300,
  "country": "Brazil",
  "cityUrl": "/wiki/Alvorada",
  "coordinates": {
   "latitude": -29.99,
   "longitude": -51.083889
  }
 },
 {
  "city": "Americana",
  "province": "São Paulo",
  "population": 242000,
  "country": "Brazil",
  "cityUrl": "/wiki/Americana,_S%C3%A3o_Paulo",
  "coordinates": {
   "latitude": -22.738611,
   "longitude": -47.331111
  }
 },
 {
  "city": "Ananindeua",
  "province": "Pará",
  "population": 535500,
  "country": "Brazil",
  "cityUrl": "/wiki/Ananindeua,_Par%C3%A1",
  "coordinates": {
   "latitude": -1.365833,
   "longitude": -48.371944
  }
 },
 {
  "city": "Anápolis",
  "province": "Goiás",
  "population": 391700,
  "country": "Brazil",
  "cityUrl": "/wiki/An%C3%A1polis",
  "coordinates": {
   "latitude": -16.333889,
   "longitude": -48.951944
  }
 },
 {
  "city": "Angra dos Reis",
  "province": "Rio de Janeiro",
  "population": 207000,
  "country": "Brazil",
  "cityUrl": "/wiki/Angra_dos_Reis",
  "coordinates": {
   "latitude": -23.006667,
   "longitude": -44.318056
  }
 },
 {
  "city": "Aparecida de Goiania",
  "province": "Goiás",
  "population": 590100,
  "country": "Brazil",
  "cityUrl": "/wiki/Aparecida_de_Goi%C3%A2nia",
  "coordinates": {
   "latitude": -16.822778,
   "longitude": -49.225556
  }
 },
 {
  "city": "Apucarana",
  "province": "Paraná",
  "population": 136200,
  "country": "Brazil",
  "cityUrl": "/wiki/Apucarana",
  "coordinates": {
   "latitude": -23.550833,
   "longitude": -51.460833
  }
 },
 {
  "city": "Araçatuba",
  "province": "São Paulo",
  "population": 196100,
  "country": "Brazil",
  "cityUrl": "/wiki/Ara%C3%A7atuba",
  "coordinates": {
   "latitude": -21.208889,
   "longitude": -50.432778
  }
 },
 {
  "city": "Aracruz",
  "province": "Espírito Santo",
  "population": 104900,
  "country": "Brazil",
  "cityUrl": "/wiki/Aracruz,_Esp%C3%ADrito_Santo",
  "coordinates": {
   "latitude": -19.82,
   "longitude": -40.272778
  }
 },
 {
  "city": "Araguaina",
  "province": "Tocantins",
  "population": 183300,
  "country": "Brazil",
  "cityUrl": "/wiki/Aragua%C3%ADna",
  "coordinates": {
   "latitude": -7.190833,
   "longitude": -48.206944
  }
 },
 {
  "city": "Araguari",
  "province": "Minas Gerais",
  "population": 116900,
  "country": "Brazil",
  "cityUrl": "/wiki/Araguari",
  "coordinates": {
   "latitude": -18.648889,
   "longitude": -48.186944
  }
 },
 {
  "city": "Arapiraca",
  "province": "Alagoas",
  "population": 233000,
  "country": "Brazil",
  "cityUrl": "/wiki/Arapiraca",
  "coordinates": {
   "latitude": -9.751944,
   "longitude": -36.660833
  }
 },
 {
  "city": "Arapongas",
  "province": "Paraná",
  "population": 124800,
  "country": "Brazil",
  "cityUrl": "/wiki/Arapongas",
  "coordinates": {
   "latitude": -23.418889,
   "longitude": -51.423889
  }
 },
 {
  "city": "Araraquara",
  "province": "São Paulo",
  "population": 238300,
  "country": "Brazil",
  "cityUrl": "/wiki/Araraquara",
  "coordinates": {
   "latitude": -21.793889,
   "longitude": -48.175833
  }
 },
 {
  "city": "Araras",
  "province": "São Paulo",
  "population": 133500,
  "country": "Brazil",
  "cityUrl": "/wiki/Araras",
  "coordinates": {
   "latitude": -22.357222,
   "longitude": -47.384444
  }
 },
 {
  "city": "Araruama",
  "province": "Rio de Janeiro",
  "population": 134200,
  "country": "Brazil",
  "cityUrl": "/wiki/Araruama",
  "coordinates": {
   "latitude": -22.872778,
   "longitude": -42.342778
  }
 },
 {
  "city": "Araucária",
  "province": "Paraná",
  "population": 146200,
  "country": "Brazil",
  "cityUrl": "/wiki/Arauc%C3%A1ria",
  "coordinates": {
   "latitude": -25.416667,
   "longitude": -49.25
  }
 },
 {
  "city": "Araxá",
  "province": "Minas Gerais",
  "population": 107300,
  "country": "Brazil",
  "cityUrl": "/wiki/Arax%C3%A1",
  "coordinates": {
   "latitude": -19.592778,
   "longitude": -46.940833
  }
 },
 {
  "city": "Ariquemes",
  "province": "Rondônia",
  "population": 109500,
  "country": "Brazil",
  "cityUrl": "/wiki/Ariquemes",
  "coordinates": {
   "latitude": -9.916111,
   "longitude": -63.040833
  }
 },
 {
  "city": "Assis",
  "province": "São Paulo",
  "population": 105000,
  "country": "Brazil",
  "cityUrl": "/wiki/Assis",
  "coordinates": {
   "latitude": -22.661944,
   "longitude": -50.411944
  }
 },
 {
  "city": "Atibaia",
  "province": "São Paulo",
  "population": 144000,
  "country": "Brazil",
  "cityUrl": "/wiki/Atibaia",
  "coordinates": {
   "latitude": -23.116944,
   "longitude": -46.550278
  }
 },
 {
  "city": "Bacabal",
  "province": "Maranhão",
  "population": 104600,
  "country": "Brazil",
  "cityUrl": "/wiki/Bacabal",
  "coordinates": {
   "latitude": -4.225,
   "longitude": -44.78
  }
 },
 {
  "city": "Bagé",
  "province": "Rio Grande do Sul",
  "population": 121300,
  "country": "Brazil",
  "cityUrl": "/wiki/Bag%C3%A9",
  "coordinates": {
   "latitude": -31.330833,
   "longitude": -54.106944
  }
 },
 {
  "city": "Balneário Camboriú",
  "province": "Santa Catarina",
  "population": 145700,
  "country": "Brazil",
  "cityUrl": "/wiki/Balne%C3%A1rio_Cambori%C3%BA",
  "coordinates": {
   "latitude": -26.995278,
   "longitude": -48.635556
  }
 },
 {
  "city": "Barbacena",
  "province": "Minas Gerais",
  "population": 138200,
  "country": "Brazil",
  "cityUrl": "/wiki/Barbacena",
  "coordinates": {
   "latitude": -21.216667,
   "longitude": -43.766667
  }
 },
 {
  "city": "Barcarena",
  "province": "Pará",
  "population": 127000,
  "country": "Brazil",
  "cityUrl": "/wiki/Barcarena,_Par%C3%A1",
  "coordinates": {
   "latitude": -1.505833,
   "longitude": -48.625833
  }
 },
 {
  "city": "Barra do Piraí",
  "province": "Rio de Janeiro",
  "population": 100700,
  "country": "Brazil",
  "cityUrl": "/wiki/Barra_do_Pira%C3%AD",
  "coordinates": {
   "latitude": -22.47,
   "longitude": -43.825833
  }
 },
 {
  "city": "Barra Mansa",
  "province": "Rio de Janeiro",
  "population": 184800,
  "country": "Brazil",
  "cityUrl": "/wiki/Barra_Mansa",
  "coordinates": {
   "latitude": -22.543889,
   "longitude": -44.170833
  }
 },
 {
  "city": "Barreiras",
  "province": "Bahia",
  "population": 156900,
  "country": "Brazil",
  "cityUrl": "/wiki/Barreiras",
  "coordinates": {
   "latitude": -12.148333,
   "longitude": -44.9925
  }
 },
 {
  "city": "Barretos",
  "province": "São Paulo",
  "population": 122800,
  "country": "Brazil",
  "cityUrl": "/wiki/Barretos",
  "coordinates": {
   "latitude": -20.556944,
   "longitude": -48.567778
  }
 },
 {
  "city": "Barueri",
  "province": "São Paulo",
  "population": 276900,
  "country": "Brazil",
  "cityUrl": "/wiki/Barueri",
  "coordinates": {
   "latitude": -23.511111,
   "longitude": -46.876389
  }
 },
 {
  "city": "Bauru",
  "province": "São Paulo",
  "population": 379200,
  "country": "Brazil",
  "cityUrl": "/wiki/Bauru",
  "coordinates": {
   "latitude": -22.315,
   "longitude": -49.060833
  }
 },
 {
  "city": "Belém",
  "province": "Pará",
  "population": 1499600,
  "country": "Brazil",
  "cityUrl": "/wiki/Bel%C3%A9m",
  "coordinates": {
   "latitude": -1.455833,
   "longitude": -48.503889
  }
 },
 {
  "city": "Belford Roxo",
  "province": "Rio de Janeiro",
  "population": 513100,
  "country": "Brazil",
  "cityUrl": "/wiki/Belford_Roxo,_Rio_de_Janeiro",
  "coordinates": {
   "latitude": -22.763889,
   "longitude": -43.398889
  }
 },
 {
  "city": "Belo Horizonte",
  "province": "Minas Gerais",
  "population": 2721500,
  "country": "Brazil",
  "cityUrl": "/wiki/Belo_Horizonte",
  "coordinates": {
   "latitude": -19.916667,
   "longitude": -43.933333
  }
 },
 {
  "city": "Bento Gonçalves",
  "province": "Rio Grande do Sul",
  "population": 121800,
  "country": "Brazil",
  "cityUrl": "/wiki/Bento_Gon%C3%A7alves,_Rio_Grande_do_Sul",
  "coordinates": {
   "latitude": -29.170833,
   "longitude": -51.518889
  }
 },
 {
  "city": "Betim",
  "province": "Minas Gerais",
  "population": 444700,
  "country": "Brazil",
  "cityUrl": "/wiki/Betim",
  "coordinates": {
   "latitude": -19.967778,
   "longitude": -44.197778
  }
 },
 {
  "city": "Birigui",
  "province": "São Paulo",
  "population": 124800,
  "country": "Brazil",
  "cityUrl": "/wiki/Birigui",
  "coordinates": {
   "latitude": -21.288611,
   "longitude": -50.34
  }
 },
 {
  "city": "Blumenau",
  "province": "Santa Catarina",
  "population": 361800,
  "country": "Brazil",
  "cityUrl": "/wiki/Blumenau",
  "coordinates": {
   "latitude": -26.918889,
   "longitude": -49.065833
  }
 },
 {
  "city": "Boa Vista",
  "province": "Roraima",
  "population": 419600,
  "country": "Brazil",
  "cityUrl": "/wiki/Boa_Vista,_Roraima",
  "coordinates": {
   "latitude": 2.819444,
   "longitude": -60.671389
  }
 },
 {
  "city": "Botucatu",
  "province": "São Paulo",
  "population": 148100,
  "country": "Brazil",
  "cityUrl": "/wiki/Botucatu",
  "coordinates": {
   "latitude": -22.885833,
   "longitude": -48.445
  }
 },
 {
  "city": "Bragança",
  "province": "Pará",
  "population": 128900,
  "country": "Brazil",
  "cityUrl": "/wiki/Bragan%C3%A7a,_Par%C3%A1",
  "coordinates": {
   "latitude": -1.062778,
   "longitude": -46.772778
  }
 },
 {
  "city": "Bragança Paulista",
  "province": "São Paulo",
  "population": 175500,
  "country": "Brazil",
  "cityUrl": "/wiki/Bragan%C3%A7a_Paulista",
  "coordinates": {
   "latitude": -22.953056,
   "longitude": -46.542222
  }
 },
 {
  "city": "Brasilia",
  "province": "Distrito Federal",
  "population": 3039400,
  "country": "Brazil",
  "cityUrl": "/wiki/Bras%C3%ADlia",
  "coordinates": {
   "latitude": -15.793889,
   "longitude": -47.882778
  }
 },
 {
  "city": "Breves",
  "province": "Pará",
  "population": 103400,
  "country": "Brazil",
  "cityUrl": "/wiki/Breves,_Par%C3%A1",
  "coordinates": {
   "latitude": -1.681944,
   "longitude": -50.48
  }
 },
 {
  "city": "Cabo de Santo Agostinho",
  "province": "Pernambuco",
  "population": 208900,
  "country": "Brazil",
  "cityUrl": "/wiki/Cabo_de_Santo_Agostinho",
  "coordinates": {
   "latitude": -8.289722,
   "longitude": -35.03
  }
 },
 {
  "city": "Cabo Frio",
  "province": "Rio de Janeiro",
  "population": 230300,
  "country": "Brazil",
  "cityUrl": "/wiki/Cabo_Frio",
  "coordinates": {
   "latitude": -22.878889,
   "longitude": -42.018889
  }
 },
 {
  "city": "Cachoeirinha",
  "province": "Rio Grande do Sul",
  "population": 131200,
  "country": "Brazil",
  "cityUrl": "/wiki/Cachoeirinha",
  "coordinates": {
   "latitude": -29.950833,
   "longitude": -51.093889
  }
 },
 {
  "city": "Cachoeiro de Itapemirim",
  "province": "Espírito Santo",
  "population": 210500,
  "country": "Brazil",
  "cityUrl": "/wiki/Cachoeiro_de_Itapemirim",
  "coordinates": {
   "latitude": -20.848889,
   "longitude": -41.112778
  }
 },
 {
  "city": "Caieiras",
  "province": "São Paulo",
  "population": 102700,
  "country": "Brazil",
  "cityUrl": "/wiki/Caieiras",
  "coordinates": {
   "latitude": -23.364444,
   "longitude": -46.740833
  }
 },
 {
  "city": "Camacari",
  "province": "Bahia",
  "population": 304300,
  "country": "Brazil",
  "cityUrl": "/wiki/Cama%C3%A7ari",
  "coordinates": {
   "latitude": -12.697778,
   "longitude": -38.323889
  }
 },
 {
  "city": "Camaragibe",
  "province": "Pernambuco",
  "population": 158800,
  "country": "Brazil",
  "cityUrl": "/wiki/Camaragibe",
  "coordinates": {
   "latitude": -8.021944,
   "longitude": -34.980833
  }
 },
 {
  "city": "Cambé",
  "province": "Paraná",
  "population": 107300,
  "country": "Brazil",
  "cityUrl": "/wiki/Camb%C3%A9",
  "coordinates": {
   "latitude": -23.275833,
   "longitude": -51.277778
  }
 },
 {
  "city": "Cametá",
  "province": "Pará",
  "population": 139300,
  "country": "Brazil",
  "cityUrl": "/wiki/Camet%C3%A1",
  "coordinates": {
   "latitude": -2.243889,
   "longitude": -49.495833
  }
 },
 {
  "city": "Campina Grande",
  "province": "Paraíba",
  "population": 411800,
  "country": "Brazil",
  "cityUrl": "/wiki/Campina_Grande",
  "coordinates": {
   "latitude": -7.230556,
   "longitude": -35.881111
  }
 },
 {
  "city": "Campinas",
  "province": "São Paulo",
  "population": 1213700,
  "country": "Brazil",
  "cityUrl": "/wiki/Campinas",
  "coordinates": {
   "latitude": -22.905833,
   "longitude": -47.060833
  }
 },
 {
  "city": "Campo Grande",
  "province": "Mato Grosso do Sul",
  "population": 906000,
  "country": "Brazil",
  "cityUrl": "/wiki/Campo_Grande",
  "coordinates": {
   "latitude": -20.483889,
   "longitude": -54.615
  }
 },
 {
  "city": "Campo Largo",
  "province": "Paraná",
  "population": 133800,
  "country": "Brazil",
  "cityUrl": "/wiki/Campo_Largo,_Paran%C3%A1",
  "coordinates": {
   "latitude": -25.458889,
   "longitude": -49.527778
  }
 },
 {
  "city": "Campos dos Goytacazes",
  "province": "Rio de Janeiro",
  "population": 511100,
  "country": "Brazil",
  "cityUrl": "/wiki/Campos_dos_Goytacazes",
  "coordinates": {
   "latitude": -21.753889,
   "longitude": -41.323889
  }
 },
 {
  "city": "Canoas",
  "province": "Rio Grande do Sul",
  "population": 348200,
  "country": "Brazil",
  "cityUrl": "/wiki/Canoas",
  "coordinates": {
   "latitude": -29.92,
   "longitude": -51.18
  }
 },
 {
  "city": "Caraguatatuba",
  "province": "São Paulo",
  "population": 123300,
  "country": "Brazil",
  "cityUrl": "/wiki/Caraguatatuba",
  "coordinates": {
   "latitude": -23.62,
   "longitude": -45.412778
  }
 },
 {
  "city": "Carapicuíba",
  "province": "São Paulo",
  "population": 403100,
  "country": "Brazil",
  "cityUrl": "/wiki/Carapicu%C3%ADba",
  "coordinates": {
   "latitude": -23.519167,
   "longitude": -46.835833
  }
 },
 {
  "city": "Cariacica",
  "province": "Espírito Santo",
  "population": 383900,
  "country": "Brazil",
  "cityUrl": "/wiki/Cariacica",
  "coordinates": {
   "latitude": -20.263889,
   "longitude": -40.42
  }
 },
 {
  "city": "Caruaru",
  "province": "Pernambuco",
  "population": 365200,
  "country": "Brazil",
  "cityUrl": "/wiki/Caruaru",
  "coordinates": {
   "latitude": -8.282778,
   "longitude": -35.975833
  }
 },
 {
  "city": "Cascavel",
  "province": "Paraná",
  "population": 332300,
  "country": "Brazil",
  "cityUrl": "/wiki/Cascavel",
  "coordinates": {
   "latitude": -24.955556,
   "longitude": -53.455278
  }
 },
 {
  "city": "Castanhal",
  "province": "Pará",
  "population": 203200,
  "country": "Brazil",
  "cityUrl": "/wiki/Castanhal",
  "coordinates": {
   "latitude": -1.296944,
   "longitude": -47.921944
  }
 },
 {
  "city": "Catalão",
  "province": "Goiás",
  "population": 110900,
  "country": "Brazil",
  "cityUrl": "/wiki/Catal%C3%A3o",
  "coordinates": {
   "latitude": -18.17,
   "longitude": -47.941944
  }
 },
 {
  "city": "Catanduva",
  "province": "São Paulo",
  "population": 122400,
  "country": "Brazil",
  "cityUrl": "/wiki/Catanduva",
  "coordinates": {
   "latitude": -21.137778,
   "longitude": -48.972778
  }
 },
 {
  "city": "Caucaia",
  "province": "Ceará",
  "population": 365200,
  "country": "Brazil",
  "cityUrl": "/wiki/Caucaia",
  "coordinates": {
   "latitude": -3.732778,
   "longitude": -38.655833
  }
 },
 {
  "city": "Caxias",
  "province": "Maranhão",
  "population": 165500,
  "country": "Brazil",
  "cityUrl": "/wiki/Caxias,_Maranh%C3%A3o",
  "coordinates": {
   "latitude": -4.858889,
   "longitude": -43.355833
  }
 },
 {
  "city": "Caxias do Sul",
  "province": "Rio Grande do Sul",
  "population": 517400,
  "country": "Brazil",
  "cityUrl": "/wiki/Caxias_do_Sul",
  "coordinates": {
   "latitude": -29.166667,
   "longitude": -51.183333
  }
 },
 {
  "city": "Codo",
  "province": "Maranhão",
  "population": 123100,
  "country": "Brazil",
  "cityUrl": "/wiki/Cod%C3%B3",
  "coordinates": {
   "latitude": -4.455,
   "longitude": -43.885833
  }
 },
 {
  "city": "Colatina",
  "province": "Espírito Santo",
  "population": 123400,
  "country": "Brazil",
  "cityUrl": "/wiki/Colatina",
  "coordinates": {
   "latitude": -19.538889,
   "longitude": -40.630833
  }
 },
 {
  "city": "Conselheiro Lafaiete",
  "province": "Minas Gerais",
  "population": 129600,
  "country": "Brazil",
  "cityUrl": "/wiki/Conselheiro_Lafaiete",
  "coordinates": {
   "latitude": -20.66,
   "longitude": -43.785833
  }
 },
 {
  "city": "Contagem",
  "province": "Minas Gerais",
  "population": 668900,
  "country": "Brazil",
  "cityUrl": "/wiki/Contagem",
  "coordinates": {
   "latitude": -19.931944,
   "longitude": -44.053889
  }
 },
 {
  "city": "Coronel Fabriciano",
  "province": "Minas Gerais",
  "population": 110200,
  "country": "Brazil",
  "cityUrl": "/wiki/Coronel_Fabriciano",
  "coordinates": {
   "latitude": -19.518889,
   "longitude": -42.628889
  }
 },
 {
  "city": "Corumbá",
  "province": "Mato Grosso do Sul",
  "population": 112000,
  "country": "Brazil",
  "cityUrl": "/wiki/Corumb%C3%A1",
  "coordinates": {
   "latitude": -19.008889,
   "longitude": -57.652778
  }
 },
 {
  "city": "Cotia",
  "province": "São Paulo",
  "population": 253600,
  "country": "Brazil",
  "cityUrl": "/wiki/Cotia",
  "coordinates": {
   "latitude": -23.604167,
   "longitude": -46.919444
  }
 },
 {
  "city": "Crato",
  "province": "Ceará",
  "population": 133000,
  "country": "Brazil",
  "cityUrl": "/wiki/Crato,_Cear%C3%A1",
  "coordinates": {
   "latitude": -7.233889,
   "longitude": -39.408889
  }
 },
 {
  "city": "Criciúma",
  "province": "Santa Catarina",
  "population": 217300,
  "country": "Brazil",
  "cityUrl": "/wiki/Crici%C3%BAma",
  "coordinates": {
   "latitude": -28.677778,
   "longitude": -49.37
  }
 },
 {
  "city": "Cubatao",
  "province": "São Paulo",
  "population": 131600,
  "country": "Brazil",
  "cityUrl": "/wiki/Cubat%C3%A3o",
  "coordinates": {
   "latitude": -23.895278,
   "longitude": -46.425556
  }
 },
 {
  "city": "Cuiabá",
  "province": "Mato Grosso",
  "population": 618100,
  "country": "Brazil",
  "cityUrl": "/wiki/Cuiab%C3%A1",
  "coordinates": {
   "latitude": -15.595833,
   "longitude": -56.096944
  }
 },
 {
  "city": "Curitiba",
  "province": "Paraná",
  "population": 1948600,
  "country": "Brazil",
  "cityUrl": "/wiki/Curitiba",
  "coordinates": {
   "latitude": -25.429722,
   "longitude": -49.271111
  }
 },
 {
  "city": "Diadema",
  "province": "São Paulo",
  "population": 426700,
  "country": "Brazil",
  "cityUrl": "/wiki/Diadema,_S%C3%A3o_Paulo",
  "coordinates": {
   "latitude": -23.686111,
   "longitude": -46.610556
  }
 },
 {
  "city": "Divinópolis",
  "province": "Minas Gerais",
  "population": 240400,
  "country": "Brazil",
  "cityUrl": "/wiki/Divin%C3%B3polis",
  "coordinates": {
   "latitude": -20.138889,
   "longitude": -44.883889
  }
 },
 {
  "city": "Dourados",
  "province": "Mato Grosso do Sul",
  "population": 225400,
  "country": "Brazil",
  "cityUrl": "/wiki/Dourados",
  "coordinates": {
   "latitude": -22.220833,
   "longitude": -54.805833
  }
 },
 {
  "city": "Duque de Caxias",
  "province": "Rio de Janeiro",
  "population": 924600,
  "country": "Brazil",
  "cityUrl": "/wiki/Duque_de_Caxias,_Rio_de_Janeiro",
  "coordinates": {
   "latitude": -22.785833,
   "longitude": -43.311944
  }
 },
 {
  "city": "Embu",
  "province": "São Paulo",
  "population": 276500,
  "country": "Brazil",
  "cityUrl": "/wiki/Embu_das_Artes",
  "coordinates": {
   "latitude": -23.648889,
   "longitude": -46.851944
  }
 },
 {
  "city": "Erechim",
  "province": "Rio Grande do Sul",
  "population": 106600,
  "country": "Brazil",
  "cityUrl": "/wiki/Erechim",
  "coordinates": {
   "latitude": -27.633889,
   "longitude": -52.273889
  }
 },
 {
  "city": "Eunápolis",
  "province": "Bahia",
  "population": 114300,
  "country": "Brazil",
  "cityUrl": "/wiki/Eun%C3%A1polis",
  "coordinates": {
   "latitude": -16.377778,
   "longitude": -39.58
  }
 },
 {
  "city": "Ferraz de Vasconcelos",
  "province": "São Paulo",
  "population": 196500,
  "country": "Brazil",
  "cityUrl": "/wiki/Ferraz_de_Vasconcelos",
  "coordinates": {
   "latitude": -23.541111,
   "longitude": -46.368889
  }
 },
 {
  "city": "Florianópolis",
  "province": "Santa Catarina",
  "population": 508800,
  "country": "Brazil",
  "cityUrl": "/wiki/Florian%C3%B3polis",
  "coordinates": {
   "latitude": -27.612222,
   "longitude": -48.485278
  }
 },
 {
  "city": "Formosa",
  "province": "Goiás",
  "population": 123600,
  "country": "Brazil",
  "cityUrl": "/wiki/Formosa,_Goi%C3%A1s",
  "coordinates": {
   "latitude": -15.536944,
   "longitude": -47.333889
  }
 },
 {
  "city": "Fortaleza",
  "province": "Ceará",
  "population": 2703300,
  "country": "Brazil",
  "cityUrl": "/wiki/Fortaleza",
  "coordinates": {
   "latitude": -3.7275,
   "longitude": -38.5275
  }
 },
 {
  "city": "Foz do Iguaçu",
  "province": "Paraná",
  "population": 258200,
  "country": "Brazil",
  "cityUrl": "/wiki/Foz_do_Igua%C3%A7u",
  "coordinates": {
   "latitude": -25.54,
   "longitude": -54.5875
  }
 },
 {
  "city": "Franca",
  "province": "São Paulo",
  "population": 355900,
  "country": "Brazil",
  "cityUrl": "/wiki/Franca",
  "coordinates": {
   "latitude": -20.538889,
   "longitude": -47.400833
  }
 },
 {
  "city": "Francisco Morato",
  "province": "São Paulo",
  "population": 175600,
  "country": "Brazil",
  "cityUrl": "/wiki/Francisco_Morato",
  "coordinates": {
   "latitude": -23.281667,
   "longitude": -46.7425
  }
 },
 {
  "city": "Franco da Rocha",
  "province": "São Paulo",
  "population": 156400,
  "country": "Brazil",
  "cityUrl": "/wiki/Franco_da_Rocha",
  "coordinates": {
   "latitude": -23.328611,
   "longitude": -46.724444
  }
 },
 {
  "city": "Garanhuns",
  "province": "Pernambuco",
  "population": 140500,
  "country": "Brazil",
  "cityUrl": "/wiki/Garanhuns",
  "coordinates": {
   "latitude": -8.890278,
   "longitude": -36.492778
  }
 },
 {
  "city": "Goiânia",
  "province": "Goiás",
  "population": 1536000,
  "country": "Brazil",
  "cityUrl": "/wiki/Goi%C3%A2nia",
  "coordinates": {
   "latitude": -16.666667,
   "longitude": -49.25
  }
 },
 {
  "city": "Governador Valadares",
  "province": "Minas Gerais",
  "population": 281000,
  "country": "Brazil",
  "cityUrl": "/wiki/Governador_Valadares,_Minas_Gerais",
  "coordinates": {
   "latitude": -18.850833,
   "longitude": -41.948889
  }
 },
 {
  "city": "Gravatai",
  "province": "Rio Grande do Sul",
  "population": 283600,
  "country": "Brazil",
  "cityUrl": "/wiki/Gravata%C3%AD",
  "coordinates": {
   "latitude": -29.943889,
   "longitude": -50.991944
  }
 },
 {
  "city": "Guarapari",
  "province": "Espírito Santo",
  "population": 126700,
  "country": "Brazil",
  "cityUrl": "/wiki/Guarapari",
  "coordinates": {
   "latitude": -20.65,
   "longitude": -40.5
  }
 },
 {
  "city": "Guarapuava",
  "province": "Paraná",
  "population": 182600,
  "country": "Brazil",
  "cityUrl": "/wiki/Guarapuava",
  "coordinates": {
   "latitude": -25.395,
   "longitude": -51.457778
  }
 },
 {
  "city": "Guaratinguetá",
  "province": "São Paulo",
  "population": 122500,
  "country": "Brazil",
  "cityUrl": "/wiki/Guaratinguet%C3%A1",
  "coordinates": {
   "latitude": -22.816667,
   "longitude": -45.227778
  }
 },
 {
  "city": "Guarujá",
  "province": "São Paulo",
  "population": 322700,
  "country": "Brazil",
  "cityUrl": "/wiki/Guaruj%C3%A1",
  "coordinates": {
   "latitude": -23.993611,
   "longitude": -46.256389
  }
 },
 {
  "city": "Guarulhos",
  "province": "São Paulo",
  "population": 1392100,
  "country": "Brazil",
  "cityUrl": "/wiki/Guarulhos",
  "coordinates": {
   "latitude": -23.462778,
   "longitude": -46.532778
  }
 },
 {
  "city": "Hortolandia",
  "province": "São Paulo",
  "population": 222100,
  "country": "Brazil",
  "cityUrl": "/wiki/Hortol%C3%A2ndia",
  "coordinates": {
   "latitude": -22.858333,
   "longitude": -47.22
  }
 },
 {
  "city": "Ibirité",
  "province": "Minas Gerais",
  "population": 182100,
  "country": "Brazil",
  "cityUrl": "/wiki/Ibirit%C3%A9",
  "coordinates": {
   "latitude": -20.021944,
   "longitude": -44.058889
  }
 },
 {
  "city": "Igarassu",
  "province": "Pernambuco",
  "population": 118300,
  "country": "Brazil",
  "cityUrl": "/wiki/Igarassu,_Pernambuco",
  "coordinates": {
   "latitude": -7.834167,
   "longitude": -34.906389
  }
 },
 {
  "city": "Iguatu",
  "province": "Ceará",
  "population": 103000,
  "country": "Brazil",
  "cityUrl": "/wiki/Iguatu",
  "coordinates": {
   "latitude": -6.358889,
   "longitude": -39.298889
  }
 },
 {
  "city": "Ilhéus",
  "province": "Bahia",
  "population": 159900,
  "country": "Brazil",
  "cityUrl": "/wiki/Ilh%C3%A9us",
  "coordinates": {
   "latitude": -14.788889,
   "longitude": -39.048889
  }
 },
 {
  "city": "Indaiatuba",
  "province": "São Paulo",
  "population": 256200,
  "country": "Brazil",
  "cityUrl": "/wiki/Indaiatuba",
  "coordinates": {
   "latitude": -23.090278,
   "longitude": -47.218056
  }
 },
 {
  "city": "Itabira",
  "province": "Minas Gerais",
  "population": 120900,
  "country": "Brazil",
  "cityUrl": "/wiki/Itabira",
  "coordinates": {
   "latitude": -19.618889,
   "longitude": -43.226944
  }
 },
 {
  "city": "Itaboraí",
  "province": "Rio de Janeiro",
  "population": 242500,
  "country": "Brazil",
  "cityUrl": "/wiki/Itabora%C3%AD",
  "coordinates": {
   "latitude": -22.743889,
   "longitude": -42.858889
  }
 },
 {
  "city": "Itabuna",
  "province": "Bahia",
  "population": 213600,
  "country": "Brazil",
  "cityUrl": "/wiki/Itabuna",
  "coordinates": {
   "latitude": -14.785833,
   "longitude": -39.28
  }
 },
 {
  "city": "Itaguaí",
  "province": "Rio de Janeiro",
  "population": 120900,
  "country": "Brazil",
  "cityUrl": "/wiki/Itagua%C3%AD",
  "coordinates": {
   "latitude": -22.851944,
   "longitude": -43.775
  }
 },
 {
  "city": "Itajaí",
  "province": "Santa Catarina",
  "population": 209000,
  "country": "Brazil",
  "cityUrl": "/wiki/Itaja%C3%AD",
  "coordinates": {
   "latitude": -26.9,
   "longitude": -48.666667
  }
 },
 {
  "city": "Itapecerica da Serra",
  "province": "São Paulo",
  "population": 169100,
  "country": "Brazil",
  "cityUrl": "/wiki/Itapecerica_da_Serra",
  "coordinates": {
   "latitude": -23.717222,
   "longitude": -46.849444
  }
 },
 {
  "city": "Itapetininga",
  "province": "São Paulo",
  "population": 158600,
  "country": "Brazil",
  "cityUrl": "/wiki/Itapetininga",
  "coordinates": {
   "latitude": -23.591667,
   "longitude": -48.053056
  }
 },
 {
  "city": "Itapevi",
  "province": "São Paulo",
  "population": 226500,
  "country": "Brazil",
  "cityUrl": "/wiki/Itapevi",
  "coordinates": {
   "latitude": -23.548889,
   "longitude": -46.934167
  }
 },
 {
  "city": "Itapipoca",
  "province": "Ceará",
  "population": 126200,
  "country": "Brazil",
  "cityUrl": "/wiki/Itapipoca",
  "coordinates": {
   "latitude": -3.493889,
   "longitude": -39.578889
  }
 },
 {
  "city": "Itaquaquecetuba",
  "province": "São Paulo",
  "population": 356800,
  "country": "Brazil",
  "cityUrl": "/wiki/Itaquaquecetuba",
  "coordinates": {
   "latitude": -23.486389,
   "longitude": -46.348611
  }
 },
 {
  "city": "Itatiba",
  "province": "São Paulo",
  "population": 114900,
  "country": "Brazil",
  "cityUrl": "/wiki/Itatiba",
  "coordinates": {
   "latitude": -23.005833,
   "longitude": -46.838889
  }
 },
 {
  "city": "Itu",
  "province": "São Paulo",
  "population": 168600,
  "country": "Brazil",
  "cityUrl": "/wiki/Itu,_S%C3%A3o_Paulo",
  "coordinates": {
   "latitude": -23.264167,
   "longitude": -47.299167
  }
 },
 {
  "city": "Itumbiara",
  "province": "Goiás",
  "population": 101500,
  "country": "Brazil",
  "cityUrl": "/wiki/Itumbiara",
  "coordinates": {
   "latitude": -18.416667,
   "longitude": -49.216667
  }
 },
 {
  "city": "Jaboatao dos Guararapes",
  "province": "Pernambuco",
  "population": 691100,
  "country": "Brazil",
  "cityUrl": "/wiki/Jaboat%C3%A3o_dos_Guararapes",
  "coordinates": {
   "latitude": -8.112222,
   "longitude": -35.015556
  }
 },
 {
  "city": "Jacareí",
  "province": "São Paulo",
  "population": 228200,
  "country": "Brazil",
  "cityUrl": "/wiki/Jacare%C3%AD",
  "coordinates": {
   "latitude": -23.305278,
   "longitude": -45.965833
  }
 },
 {
  "city": "Jandira",
  "province": "São Paulo",
  "population": 120200,
  "country": "Brazil",
  "cityUrl": "/wiki/Jandira",
  "coordinates": {
   "latitude": -23.527778,
   "longitude": -46.902778
  }
 },
 {
  "city": "Japeri",
  "province": "Rio de Janeiro",
  "population": 100600,
  "country": "Brazil",
  "cityUrl": "/wiki/Japeri",
  "coordinates": {
   "latitude": -22.643056,
   "longitude": -43.653333
  }
 },
 {
  "city": "Jaraguá do Sul",
  "province": "Santa Catarina",
  "population": 167300,
  "country": "Brazil",
  "cityUrl": "/wiki/Jaragu%C3%A1_do_Sul",
  "coordinates": {
   "latitude": -26.483333,
   "longitude": -49.066667
  }
 },
 {
  "city": "Jaú",
  "province": "São Paulo",
  "population": 144800,
  "country": "Brazil",
  "cityUrl": "/wiki/Ja%C3%BA",
  "coordinates": {
   "latitude": -22.295833,
   "longitude": -48.557778
  }
 },
 {
  "city": "Jequié",
  "province": "Bahia",
  "population": 161900,
  "country": "Brazil",
  "cityUrl": "/wiki/Jequi%C3%A9",
  "coordinates": {
   "latitude": -13.863,
   "longitude": -40.0843
  }
 },
 {
  "city": "Ji-Paraná",
  "province": "Rondônia",
  "population": 131600,
  "country": "Brazil",
  "cityUrl": "/wiki/Ji-Paran%C3%A1",
  "coordinates": {
   "latitude": -10.885278,
   "longitude": -61.951667
  }
 },
 {
  "city": "Joao Pessoa",
  "province": "Paraíba",
  "population": 801700,
  "country": "Brazil",
  "cityUrl": "/wiki/Jo%C3%A3o_Pessoa,_Para%C3%ADba",
  "coordinates": {
   "latitude": -7.12,
   "longitude": -34.88
  }
 },
 {
  "city": "Juazeiro",
  "province": "Bahia",
  "population": 220300,
  "country": "Brazil",
  "cityUrl": "/wiki/Juazeiro",
  "coordinates": {
   "latitude": -9.430556,
   "longitude": -40.502778
  }
 },
 {
  "city": "Juàzeiro do Norte",
  "province": "Ceará",
  "population": 268200,
  "country": "Brazil",
  "cityUrl": "/wiki/Ju%C3%A0zeiro_do_Norte",
  "coordinates": {
   "latitude": -7.2,
   "longitude": -39.333333
  }
 },
 {
  "city": "Juiz de Fora",
  "province": "Minas Gerais",
  "population": 559600,
  "country": "Brazil",
  "cityUrl": "/wiki/Juiz_de_Fora",
  "coordinates": {
   "latitude": -21.761944,
   "longitude": -43.349444
  }
 },
 {
  "city": "Jundiaí",
  "province": "São Paulo",
  "population": 405700,
  "country": "Brazil",
  "cityUrl": "/wiki/Jundia%C3%AD",
  "coordinates": {
   "latitude": -23.185833,
   "longitude": -46.883889
  }
 },
 {
  "city": "Lagarto",
  "province": "Sergipe",
  "population": 103200,
  "country": "Brazil",
  "cityUrl": "/wiki/Lagarto,_Sergipe",
  "coordinates": {
   "latitude": -10.916944,
   "longitude": -37.65
  }
 },
 {
  "city": "Lages",
  "province": "Santa Catarina",
  "population": 158600,
  "country": "Brazil",
  "cityUrl": "/wiki/Lages",
  "coordinates": {
   "latitude": -27.815833,
   "longitude": -50.325833
  }
 },
 {
  "city": "Lauro de Freitas",
  "province": "Bahia",
  "population": 194600,
  "country": "Brazil",
  "cityUrl": "/wiki/Lauro_de_Freitas",
  "coordinates": {
   "latitude": -12.893889,
   "longitude": -38.326944
  }
 },
 {
  "city": "Leme",
  "province": "São Paulo",
  "population": 100300,
  "country": "Brazil",
  "cityUrl": "/wiki/Leme,_S%C3%A3o_Paulo",
  "coordinates": {
   "latitude": -22.186111,
   "longitude": -47.390556
  }
 },
 {
  "city": "Limeira",
  "province": "São Paulo",
  "population": 298700,
  "country": "Brazil",
  "cityUrl": "/wiki/Limeira",
  "coordinates": {
   "latitude": -22.565,
   "longitude": -47.401944
  }
 },
 {
  "city": "Linhares",
  "province": "Espírito Santo",
  "population": 166500,
  "country": "Brazil",
  "cityUrl": "/wiki/Linhares",
  "coordinates": {
   "latitude": -19.389444,
   "longitude": -40.067778
  }
 },
 {
  "city": "Londrina",
  "province": "Paraná",
  "population": 553400,
  "country": "Brazil",
  "cityUrl": "/wiki/Londrina",
  "coordinates": {
   "latitude": -23.31,
   "longitude": -51.162778
  }
 },
 {
  "city": "Luziânia",
  "province": "Goiás",
  "population": 196900,
  "country": "Brazil",
  "cityUrl": "/wiki/Luzi%C3%A2nia",
  "coordinates": {
   "latitude": -16.252778,
   "longitude": -47.95
  }
 },
 {
  "city": "Macae",
  "province": "Rio de Janeiro",
  "population": 239500,
  "country": "Brazil",
  "cityUrl": "/wiki/Maca%C3%A9",
  "coordinates": {
   "latitude": -22.370833,
   "longitude": -41.786944
  }
 },
 {
  "city": "Maceió",
  "province": "Alagoas",
  "population": 1021700,
  "country": "Brazil",
  "cityUrl": "/wiki/Macei%C3%B3",
  "coordinates": {
   "latitude": -9.665833,
   "longitude": -35.735
  }
 },
 {
  "city": "Magé",
  "province": "Rio de Janeiro",
  "population": 236300,
  "country": "Brazil",
  "cityUrl": "/wiki/Mag%C3%A9",
  "coordinates": {
   "latitude": -22.652778,
   "longitude": -43.040833
  }
 },
 {
  "city": "Manaus",
  "province": "Amazonas",
  "population": 2094400,
  "country": "Brazil",
  "cityUrl": "/wiki/Manaus",
  "coordinates": {
   "latitude": -3.118889,
   "longitude": -60.021667
  }
 },
 {
  "city": "Maraba",
  "province": "Pará",
  "population": 266900,
  "country": "Brazil",
  "cityUrl": "/wiki/Marab%C3%A1,_Par%C3%A1",
  "coordinates": {
   "latitude": -5.35,
   "longitude": -49.116667
  }
 },
 {
  "city": "Maracanau",
  "province": "Ceará",
  "population": 223200,
  "country": "Brazil",
  "cityUrl": "/wiki/Maracana%C3%BA",
  "coordinates": {
   "latitude": -3.866667,
   "longitude": -38.633333
  }
 },
 {
  "city": "Maranguape",
  "province": "Ceará",
  "population": 125100,
  "country": "Brazil",
  "cityUrl": "/wiki/Maranguape",
  "coordinates": {
   "latitude": -3.89,
   "longitude": -38.685833
  }
 },
 {
  "city": "Marília",
  "province": "São Paulo",
  "population": 233600,
  "country": "Brazil",
  "cityUrl": "/wiki/Mar%C3%ADlia",
  "coordinates": {
   "latitude": -22.213889,
   "longitude": -49.945833
  }
 },
 {
  "city": "Maringá",
  "province": "Paraná",
  "population": 403100,
  "country": "Brazil",
  "cityUrl": "/wiki/Maring%C3%A1",
  "coordinates": {
   "latitude": -23.4,
   "longitude": -51.916667
  }
 },
 {
  "city": "Marituba",
  "province": "Pará",
  "population": 125400,
  "country": "Brazil",
  "cityUrl": "/wiki/Marituba",
  "coordinates": {
   "latitude": -1.355,
   "longitude": -48.341944
  }
 },
 {
  "city": "Mauá",
  "province": "São Paulo",
  "population": 457700,
  "country": "Brazil",
  "cityUrl": "/wiki/Mau%C3%A1",
  "coordinates": {
   "latitude": -23.667778,
   "longitude": -46.460833
  }
 },
 {
  "city": "Mesquita",
  "province": "Rio de Janeiro",
  "population": 171000,
  "country": "Brazil",
  "cityUrl": "/wiki/Mesquita,_Rio_de_Janeiro",
  "coordinates": {
   "latitude": -22.805278,
   "longitude": -43.415531
  }
 },
 {
  "city": "Moji das Cruzes",
  "province": "São Paulo",
  "population": 429300,
  "country": "Brazil",
  "cityUrl": "/wiki/Moji_das_Cruzes",
  "coordinates": {
   "latitude": -23.522778,
   "longitude": -46.187778
  }
 },
 {
  "city": "Moji-Guaçu",
  "province": "São Paulo",
  "population": 148300,
  "country": "Brazil",
  "cityUrl": "/wiki/Moji-Gua%C3%A7u",
  "coordinates": {
   "latitude": -22.371944,
   "longitude": -46.941944
  }
 },
 {
  "city": "Montes Claros",
  "province": "Minas Gerais",
  "population": 398300,
  "country": "Brazil",
  "cityUrl": "/wiki/Montes_Claros",
  "coordinates": {
   "latitude": -16.730556,
   "longitude": -43.863889
  }
 },
 {
  "city": "Mossoró",
  "province": "Rio Grande do Norte",
  "population": 291900,
  "country": "Brazil",
  "cityUrl": "/wiki/Mossor%C3%B3",
  "coordinates": {
   "latitude": -5.187778,
   "longitude": -37.343889
  }
 },
 {
  "city": "Muriaé",
  "province": "Minas Gerais",
  "population": 107900,
  "country": "Brazil",
  "cityUrl": "/wiki/Muria%C3%A9",
  "coordinates": {
   "latitude": -21.130556,
   "longitude": -42.366389
  }
 },
 {
  "city": "Natal",
  "province": "Rio Grande do Norte",
  "population": 877700,
  "country": "Brazil",
  "cityUrl": "/wiki/Natal,_Brazil",
  "coordinates": {
   "latitude": -5.783333,
   "longitude": -35.2
  }
 },
 {
  "city": "Nilópolis",
  "province": "Rio de Janeiro",
  "population": 158300,
  "country": "Brazil",
  "cityUrl": "/wiki/Nil%C3%B3polis",
  "coordinates": {
   "latitude": -22.805278,
   "longitude": -43.415531
  }
 },
 {
  "city": "Niterói",
  "province": "Rio de Janeiro",
  "population": 497900,
  "country": "Brazil",
  "cityUrl": "/wiki/Niter%C3%B3i",
  "coordinates": {
   "latitude": -22.882778,
   "longitude": -43.103889
  }
 },
 {
  "city": "Nossa Senhora do Socorro",
  "province": "Sergipe",
  "population": 179700,
  "country": "Brazil",
  "cityUrl": "/wiki/Nossa_Senhora_do_Socorro",
  "coordinates": {
   "latitude": -10.855,
   "longitude": -37.059167
  }
 },
 {
  "city": "Nova Friburgo",
  "province": "Rio de Janeiro",
  "population": 185100,
  "country": "Brazil",
  "cityUrl": "/wiki/Nova_Friburgo",
  "coordinates": {
   "latitude": -22.281944,
   "longitude": -42.531111
  }
 },
 {
  "city": "Nova Iguaçu",
  "province": "Rio de Janeiro",
  "population": 797400,
  "country": "Brazil",
  "cityUrl": "/wiki/Nova_Igua%C3%A7u",
  "coordinates": {
   "latitude": -22.758889,
   "longitude": -43.450833
  }
 },
 {
  "city": "Novo Gama",
  "province": "Goiás",
  "population": 108400,
  "country": "Brazil",
  "cityUrl": "/wiki/Novo_Gama",
  "coordinates": {
   "latitude": -16.053611,
   "longitude": -48.029444
  }
 },
 {
  "city": "Nôvo Hamburgo",
  "province": "Rio Grande do Sul",
  "population": 249100,
  "country": "Brazil",
  "cityUrl": "/wiki/N%C3%B4vo_Hamburgo",
  "coordinates": {
   "latitude": -29.677778,
   "longitude": -51.130833
  }
 },
 {
  "city": "Olinda",
  "province": "Pernambuco",
  "population": 390100,
  "country": "Brazil",
  "cityUrl": "/wiki/Olinda",
  "coordinates": {
   "latitude": -8.008889,
   "longitude": -34.855
  }
 },
 {
  "city": "Osasco",
  "province": "São Paulo",
  "population": 696400,
  "country": "Brazil",
  "cityUrl": "/wiki/Osasco",
  "coordinates": {
   "latitude": -23.532778,
   "longitude": -46.791944
  }
 },
 {
  "city": "Ourinhos",
  "province": "São Paulo",
  "population": 111100,
  "country": "Brazil",
  "cityUrl": "/wiki/Ourinhos",
  "coordinates": {
   "latitude": -22.974444,
   "longitude": -49.871944
  }
 },
 {
  "city": "Paço do Lumiar",
  "province": "Maranhão",
  "population": 119900,
  "country": "Brazil",
  "cityUrl": "/wiki/Pa%C3%A7o_do_Lumiar",
  "coordinates": {
   "latitude": -2.531944,
   "longitude": -44.107778
  }
 },
 {
  "city": "Palhoça",
  "province": "Santa Catarina",
  "population": 161400,
  "country": "Brazil",
  "cityUrl": "/wiki/Palho%C3%A7a",
  "coordinates": {
   "latitude": -27.645,
   "longitude": -48.667778
  }
 },
 {
  "city": "Palmas",
  "province": "Tocantins",
  "population": 279900,
  "country": "Brazil",
  "cityUrl": "/wiki/Palmas,_Tocantins",
  "coordinates": {
   "latitude": -10.184444,
   "longitude": -48.333611
  }
 },
 {
  "city": "Paragominas",
  "province": "Pará",
  "population": 108500,
  "country": "Brazil",
  "cityUrl": "/wiki/Paragominas",
  "coordinates": {
   "latitude": -2.995833,
   "longitude": -47.352778
  }
 },
 {
  "city": "Paranaguá",
  "province": "Paraná",
  "population": 151800,
  "country": "Brazil",
  "cityUrl": "/wiki/Paranagu%C3%A1",
  "coordinates": {
   "latitude": -25.520833,
   "longitude": -48.509444
  }
 },
 {
  "city": "Parauapebas",
  "province": "Pará",
  "population": 196300,
  "country": "Brazil",
  "cityUrl": "/wiki/Parauapebas",
  "coordinates": {
   "latitude": -6.067778,
   "longitude": -49.901944
  }
 },
 {
  "city": "Parintins",
  "province": "Amazonas",
  "population": 112700,
  "country": "Brazil",
  "cityUrl": "/wiki/Parintins",
  "coordinates": {
   "latitude": -2.627778,
   "longitude": -56.735833
  }
 },
 {
  "city": "Parnaíba",
  "province": "Piauí",
  "population": 150200,
  "country": "Brazil",
  "cityUrl": "/wiki/Parna%C3%ADba",
  "coordinates": {
   "latitude": -2.905,
   "longitude": -41.776944
  }
 },
 {
  "city": "Parnamirim",
  "province": "Rio Grande do Norte",
  "population": 248600,
  "country": "Brazil",
  "cityUrl": "/wiki/Parnamirim",
  "coordinates": {
   "latitude": -5.916667,
   "longitude": -35.25
  }
 },
 {
  "city": "Passo Fundo",
  "province": "Rio Grande do Sul",
  "population": 197800,
  "country": "Brazil",
  "cityUrl": "/wiki/Passo_Fundo",
  "coordinates": {
   "latitude": -28.25,
   "longitude": -52.4
  }
 },
 {
  "city": "Passos",
  "province": "Minas Gerais",
  "population": 113800,
  "country": "Brazil",
  "cityUrl": "/wiki/Passos,_Minas_Gerais",
  "coordinates": {
   "latitude": -20.718889,
   "longitude": -46.61
  }
 },
 {
  "city": "Patos",
  "province": "Paraíba",
  "population": 107100,
  "country": "Brazil",
  "cityUrl": "/wiki/Patos",
  "coordinates": {
   "latitude": -7.024444,
   "longitude": -37.28
  }
 },
 {
  "city": "Patos de Minas",
  "province": "Minas Gerais",
  "population": 149900,
  "country": "Brazil",
  "cityUrl": "/wiki/Patos_de_Minas",
  "coordinates": {
   "latitude": -18.581667,
   "longitude": -46.514722
  }
 },
 {
  "city": "Paulínia",
  "province": "São Paulo",
  "population": 100100,
  "country": "Brazil",
  "cityUrl": "/wiki/Paul%C3%ADnia",
  "coordinates": {
   "latitude": -22.761111,
   "longitude": -47.154167
  }
 },
 {
  "city": "Paulista",
  "province": "Pernambuco",
  "population": 325600,
  "country": "Brazil",
  "cityUrl": "/wiki/Paulista",
  "coordinates": {
   "latitude": -7.940833,
   "longitude": -34.872778
  }
 },
 {
  "city": "Paulo Afonso",
  "province": "Bahia",
  "population": 119900,
  "country": "Brazil",
  "cityUrl": "/wiki/Paulo_Afonso",
  "coordinates": {
   "latitude": -9.4,
   "longitude": -38.225
  }
 },
 {
  "city": "Pelotas",
  "province": "Rio Grande do Sul",
  "population": 343700,
  "country": "Brazil",
  "cityUrl": "/wiki/Pelotas",
  "coordinates": {
   "latitude": -31.771944,
   "longitude": -52.3425
  }
 },
 {
  "city": "Petrolina",
  "province": "Pernambuco",
  "population": 337700,
  "country": "Brazil",
  "cityUrl": "/wiki/Petrolina",
  "coordinates": {
   "latitude": -9.3825,
   "longitude": -40.502222
  }
 },
 {
  "city": "Petrópolis",
  "province": "Rio de Janeiro",
  "population": 298200,
  "country": "Brazil",
  "cityUrl": "/wiki/Petr%C3%B3polis",
  "coordinates": {
   "latitude": -22.505,
   "longitude": -43.178889
  }
 },
 {
  "city": "Pindamonhangaba",
  "province": "São Paulo",
  "population": 162300,
  "country": "Brazil",
  "cityUrl": "/wiki/Pindamonhangaba",
  "coordinates": {
   "latitude": -22.923889,
   "longitude": -45.461667
  }
 },
 {
  "city": "Pinhais",
  "province": "Paraná",
  "population": 128300,
  "country": "Brazil",
  "cityUrl": "/wiki/Pinhais",
  "coordinates": {
   "latitude": -25.4325,
   "longitude": -49.193333
  }
 },
 {
  "city": "Piracicaba",
  "province": "São Paulo",
  "population": 394400,
  "country": "Brazil",
  "cityUrl": "/wiki/Piracicaba",
  "coordinates": {
   "latitude": -22.725278,
   "longitude": -47.649167
  }
 },
 {
  "city": "Piraquara",
  "province": "Paraná",
  "population": 106100,
  "country": "Brazil",
  "cityUrl": "/wiki/Piraquara",
  "coordinates": {
   "latitude": -25.441944,
   "longitude": -49.062778
  }
 },
 {
  "city": "Poà",
  "province": "São Paulo",
  "population": 114700,
  "country": "Brazil",
  "cityUrl": "/wiki/Po%C3%A1",
  "coordinates": {
   "latitude": -23.528611,
   "longitude": -46.345
  }
 },
 {
  "city": "Poços de Caldas",
  "province": "Minas Gerais",
  "population": 164900,
  "country": "Brazil",
  "cityUrl": "/wiki/Po%C3%A7os_de_Caldas",
  "coordinates": {
   "latitude": -21.787778,
   "longitude": -46.560833
  }
 },
 {
  "city": "Ponta Grossa",
  "province": "Paraná",
  "population": 341100,
  "country": "Brazil",
  "cityUrl": "/wiki/Ponta_Grossa",
  "coordinates": {
   "latitude": -25.416667,
   "longitude": -49.25
  }
 },
 {
  "city": "Porto Alegre",
  "province": "Rio Grande do Sul",
  "population": 1481000,
  "country": "Brazil",
  "cityUrl": "/wiki/Porto_Alegre",
  "coordinates": {
   "latitude": -30.033056,
   "longitude": -51.23
  }
 },
 {
  "city": "Porto Seguro",
  "province": "Bahia",
  "population": 147400,
  "country": "Brazil",
  "cityUrl": "/wiki/Porto_Seguro",
  "coordinates": {
   "latitude": -16.433333,
   "longitude": -39.083333
  }
 },
 {
  "city": "Porto Velho",
  "province": "Rondônia",
  "population": 511200,
  "country": "Brazil",
  "cityUrl": "/wiki/Porto_Velho",
  "coordinates": {
   "latitude": -8.761944,
   "longitude": -63.903889
  }
 },
 {
  "city": "Praia Grande",
  "province": "São Paulo",
  "population": 304700,
  "country": "Brazil",
  "cityUrl": "/wiki/Praia_Grande",
  "coordinates": {
   "latitude": -24.006111,
   "longitude": -46.402778
  }
 },
 {
  "city": "Presidente Prudente",
  "province": "São Paulo",
  "population": 223700,
  "country": "Brazil",
  "cityUrl": "/wiki/Presidente_Prudente,_S%C3%A3o_Paulo",
  "coordinates": {
   "latitude": -22.125556,
   "longitude": -51.388889
  }
 },
 {
  "city": "Queimados",
  "province": "Rio de Janeiro",
  "population": 144500,
  "country": "Brazil",
  "cityUrl": "/wiki/Queimados",
  "coordinates": {
   "latitude": -22.715833,
   "longitude": -43.555
  }
 },
 {
  "city": "Recife",
  "province": "Pernambuco",
  "population": 1625600,
  "country": "Brazil",
  "cityUrl": "/wiki/Recife",
  "coordinates": {
   "latitude": -8.05,
   "longitude": -34.9
  }
 },
 {
  "city": "Resende",
  "province": "Rio de Janeiro",
  "population": 126100,
  "country": "Brazil",
  "cityUrl": "/wiki/Resende,_Rio_de_Janeiro",
  "coordinates": {
   "latitude": -22.468889,
   "longitude": -44.446944
  }
 },
 {
  "city": "Ribeirao das Neves",
  "province": "Minas Gerais",
  "population": 325800,
  "country": "Brazil",
  "cityUrl": "/wiki/Ribeir%C3%A3o_das_Neves",
  "coordinates": {
   "latitude": -19.766944,
   "longitude": -44.086944
  }
 },
 {
  "city": "Ribeirao Pires",
  "province": "São Paulo",
  "population": 121100,
  "country": "Brazil",
  "cityUrl": "/wiki/Ribeir%C3%A3o_Pires",
  "coordinates": {
   "latitude": -23.715278,
   "longitude": -46.419444
  }
 },
 {
  "city": "Ribeirao Prêto",
  "province": "São Paulo",
  "population": 674400,
  "country": "Brazil",
  "cityUrl": "/wiki/Ribeir%C3%A3o_Preto",
  "coordinates": {
   "latitude": -21.178333,
   "longitude": -47.806667
  }
 },
 {
  "city": "Rio Branco",
  "province": "Acre",
  "population": 377100,
  "country": "Brazil",
  "cityUrl": "/wiki/Rio_Branco,_Acre",
  "coordinates": {
   "latitude": -9.974722,
   "longitude": -67.81
  }
 },
 {
  "city": "Rio Claro",
  "province": "São Paulo",
  "population": 201500,
  "country": "Brazil",
  "cityUrl": "/wiki/Rio_Claro,_S%C3%A3o_Paulo",
  "coordinates": {
   "latitude": -22.410833,
   "longitude": -47.560833
  }
 },
 {
  "city": "Rio das Ostras",
  "province": "Rio de Janeiro",
  "population": 136600,
  "country": "Brazil",
  "cityUrl": "/wiki/Rio_das_Ostras",
  "coordinates": {
   "latitude": -22.526944,
   "longitude": -41.945
  }
 },
 {
  "city": "Rio de Janeiro",
  "province": "Rio de Janeiro",
  "population": 6498800,
  "country": "Brazil",
  "cityUrl": "/wiki/Rio_de_Janeiro",
  "coordinates": {
   "latitude": -22.911111,
   "longitude": -43.205556
  }
 },
 {
  "city": "Rio Grande",
  "province": "Rio Grande do Sul",
  "population": 208600,
  "country": "Brazil",
  "cityUrl": "/wiki/Rio_Grande",
  "coordinates": {
   "latitude": 37.7975,
   "longitude": -107.543056
  }
 },
 {
  "city": "Rio Verde",
  "province": "Goiás",
  "population": 212200,
  "country": "Brazil",
  "cityUrl": "/wiki/Rio_Verde,_Goi%C3%A1s",
  "coordinates": {
   "latitude": -17.745,
   "longitude": -50.916667
  }
 },
 {
  "city": "Rondonópolis",
  "province": "Mato Grosso",
  "population": 218900,
  "country": "Brazil",
  "cityUrl": "/wiki/Rondon%C3%B3polis",
  "coordinates": {
   "latitude": -16.470833,
   "longitude": -54.635833
  }
 },
 {
  "city": "Sabára",
  "province": "Minas Gerais",
  "population": 135200,
  "country": "Brazil",
  "cityUrl": "/wiki/Sabar%C3%A1",
  "coordinates": {
   "latitude": -19.885833,
   "longitude": -43.806944
  }
 },
 {
  "city": "Salto",
  "province": "São Paulo",
  "population": 115200,
  "country": "Brazil",
  "cityUrl": "/wiki/Salto,_S%C3%A3o_Paulo",
  "coordinates": {
   "latitude": -23.200833,
   "longitude": -47.286944
  }
 },
 {
  "city": "Salvador",
  "province": "Bahia",
  "population": 2938100,
  "country": "Brazil",
  "cityUrl": "/wiki/Salvador,_Bahia",
  "coordinates": {
   "latitude": -12.974722,
   "longitude": -38.476667
  }
 },
 {
  "city": "Santa Bárbara D'Oeste",
  "province": "São Paulo",
  "population": 191000,
  "country": "Brazil",
  "cityUrl": "/wiki/Santa_B%C3%A1rbara_d%27Oeste",
  "coordinates": {
   "latitude": -22.754444,
   "longitude": -47.414167
  }
 },
 {
  "city": "Santa Cruz do Capibaribe",
  "province": "Pernambuco",
  "population": 103700,
  "country": "Brazil",
  "cityUrl": "/wiki/Santa_Cruz_do_Capibaribe",
  "coordinates": {
   "latitude": -7.956944,
   "longitude": -36.205
  }
 },
 {
  "city": "Santa Cruz do Sul",
  "province": "Rio Grande do Sul",
  "population": 126800,
  "country": "Brazil",
  "cityUrl": "/wiki/Santa_Cruz_do_Sul",
  "coordinates": {
   "latitude": -29.717778,
   "longitude": -52.425833
  }
 },
 {
  "city": "Santa Luzia",
  "province": "Minas Gerais",
  "population": 217600,
  "country": "Brazil",
  "cityUrl": "/wiki/Santa_Luzia,_Minas_Gerais",
  "coordinates": {
   "latitude": -19.77,
   "longitude": -43.850556
  }
 },
 {
  "city": "Santa Maria",
  "province": "Rio Grande do Sul",
  "population": 277300,
  "country": "Brazil",
  "cityUrl": "/wiki/Santa_Maria,_Rio_Grande_do_Sul",
  "coordinates": {
   "latitude": -29.683333,
   "longitude": -53.8
  }
 },
 {
  "city": "Santa Rita",
  "province": "Paraíba",
  "population": 135900,
  "country": "Brazil",
  "cityUrl": "/wiki/Santa_Rita,_Para%C3%ADba",
  "coordinates": {
   "latitude": -7.113889,
   "longitude": -34.977778
  }
 },
 {
  "city": "Santana",
  "province": "Amapá",
  "population": 113900,
  "country": "Brazil",
  "cityUrl": "/wiki/Santana,_Amap%C3%A1",
  "coordinates": {
   "latitude": -0.035,
   "longitude": -51.852778
  }
 },
 {
  "city": "Santana de Parnaíba",
  "province": "São Paulo",
  "population": 129300,
  "country": "Brazil",
  "cityUrl": "/wiki/Santana_de_Parna%C3%ADba",
  "coordinates": {
   "latitude": -23.443889,
   "longitude": -46.917778
  }
 },
 {
  "city": "Santarém",
  "province": "Pará",
  "population": 294500,
  "country": "Brazil",
  "cityUrl": "/wiki/Santar%C3%A9m,_Par%C3%A1",
  "coordinates": {
   "latitude": -2.43,
   "longitude": -54.72
  }
 },
 {
  "city": "Santo André",
  "province": "São Paulo",
  "population": 712700,
  "country": "Brazil",
  "cityUrl": "/wiki/Santo_Andr%C3%A9,_S%C3%A3o_Paulo",
  "coordinates": {
   "latitude": -23.657222,
   "longitude": -46.533333
  }
 },
 {
  "city": "Santo Antônio de Jesus",
  "province": "Bahia",
  "population": 102500,
  "country": "Brazil",
  "cityUrl": "/wiki/Santo_Ant%C3%B4nio_de_Jesus",
  "coordinates": {
   "latitude": -12.969167,
   "longitude": -39.261111
  }
 },
 {
  "city": "Santos",
  "province": "São Paulo",
  "population": 434400,
  "country": "Brazil",
  "cityUrl": "/wiki/Santos,_S%C3%A3o_Paulo",
  "coordinates": {
   "latitude": -23.936944,
   "longitude": -46.325
  }
 },
 {
  "city": "São Bernardo do Campo",
  "province": "São Paulo",
  "population": 822200,
  "country": "Brazil",
  "cityUrl": "/wiki/S%C3%A3o_Bernardo_do_Campo",
  "coordinates": {
   "latitude": -23.7,
   "longitude": -46.55
  }
 },
 {
  "city": "São Caetano do Sul",
  "province": "São Paulo",
  "population": 158800,
  "country": "Brazil",
  "cityUrl": "/wiki/S%C3%A3o_Caetano_do_Sul",
  "coordinates": {
   "latitude": -23.7,
   "longitude": -46.55
  }
 },
 {
  "city": "São Gonçalo",
  "province": "Rio de Janeiro",
  "population": 1044100,
  "country": "Brazil",
  "cityUrl": "/wiki/S%C3%A3o_Gon%C3%A7alo,_Rio_de_Janeiro",
  "coordinates": {
   "latitude": -22.826944,
   "longitude": -43.053889
  }
 },
 {
  "city": "São Joao de Meriti",
  "province": "Rio de Janeiro",
  "population": 460500,
  "country": "Brazil",
  "cityUrl": "/wiki/S%C3%A3o_Joao_de_Meriti",
  "coordinates": {
   "latitude": -22.803889,
   "longitude": -43.371944
  }
 },
 {
  "city": "São José",
  "province": "Santa Catarina",
  "population": 236000,
  "country": "Brazil",
  "cityUrl": "/wiki/S%C3%A3o_Jos%C3%A9,_Santa_Catarina",
  "coordinates": {
   "latitude": -27.615,
   "longitude": -48.627778
  }
 },
 {
  "city": "São José dos Campos",
  "province": "São Paulo",
  "population": 696000,
  "country": "Brazil",
  "cityUrl": "/wiki/S%C3%A3o_Jos%C3%A9_dos_Campos",
  "coordinates": {
   "latitude": -23.178889,
   "longitude": -45.886944
  }
 },
 {
  "city": "São José dos Pinhais",
  "province": "Paraná",
  "population": 302800,
  "country": "Brazil",
  "cityUrl": "/wiki/S%C3%A3o_Jos%C3%A9_dos_Pinhais",
  "coordinates": {
   "latitude": -25.535,
   "longitude": -49.205833
  }
 },
 {
  "city": "São Leopoldo",
  "province": "Rio Grande do Sul",
  "population": 229700,
  "country": "Brazil",
  "cityUrl": "/wiki/S%C3%A3o_Leopoldo",
  "coordinates": {
   "latitude": -29.76,
   "longitude": -51.146944
  }
 },
 {
  "city": "São Lourenço da Mata",
  "province": "Pernambuco",
  "population": 111200,
  "country": "Brazil",
  "cityUrl": "/wiki/S%C3%A3o_Louren%C3%A7o_da_Mata",
  "coordinates": {
   "latitude": -8.001944,
   "longitude": -35.017778
  }
 },
 {
  "city": "São Luís",
  "province": "Maranhão",
  "population": 1082900,
  "country": "Brazil",
  "cityUrl": "/wiki/S%C3%A3o_Lu%C3%ADs,_Maranh%C3%A3o",
  "coordinates": {
   "latitude": -2.528333,
   "longitude": -44.304444
  }
 },
 {
  "city": "São Mateus",
  "province": "Espírito Santo",
  "population": 126400,
  "country": "Brazil",
  "cityUrl": "/wiki/S%C3%A3o_Mateus,_Esp%C3%ADrito_Santo",
  "coordinates": {
   "latitude": -18.715833,
   "longitude": -39.858889
  }
 },